Fuel Type Code,Station Name,Street Address,Intersection Directions,City,State,ZIP,Plus4,Station Phone,Status Code,Expected Date,Groups With Access Code,Access Days Time,Cards Accepted,BD Blends,NG Fill Type Code,NG PSI,EV Level1 EVSE Num,EV Level2 EVSE Num,EV DC Fast Count,EV Other Info,EV Network,EV Network Web,Geocode Status,Latitude,Longitude,Date Last Confirmed,ID,Updated At,Owner Type Code,Federal Agency ID,Federal Agency Name,Open Date,Hydrogen Status Link,NG Vehicle Class,LPG Primary,E85 Blender Pump,EV Connector Types,Country,Intersection Directions (French),Access Days Time (French),BD Blends (French),Groups With Access Code (French),Hydrogen Is Retail,Access Code,Access Detail Code,Federal Agency Code,Facility Type,CNG Dispenser Num,CNG On-Site Renewable Source,CNG Total Compression Capacity,CNG Storage Capacity,LNG On-Site Renewable Source,E85 Other Ethanol Blends,EV Pricing,EV Pricing (French),LPG Nozzle Types,Hydrogen Pressures,Hydrogen Standards,CNG Fill Type Code,CNG PSI,CNG Vehicle Class,LNG Vehicle Class,EV On-Site Renewable Source,Restricted Access,RD Blends,RD Blends (French),RD Blended with Biodiesel,RD Maximum Biodiesel Level,NPS Unit Name,CNG Station Sells Renewable Natural Gas,LNG Station Sells Renewable Natural Gas
ELEC,City of Greenville - Richardson Garage,66 Richardson St,,Greenville,SC,29601,,864-467-4900,E,,Public,24 hours daily; pay lot,,,,,,2,1,,Non-Networked,,200-9,34.852437,-82.399901,2022-06-14,38309,2023-02-14 15:54:11 UTC,LG,,,2011-03-15,,,,,CHADEMO J1772 J1772COMBO,US,,,,Public,,public,,,PAY_GARAGE,,,,,,,Free,,,,,,,,,,false,,,,,,,
ELEC,City of Santa Monica - Civic Parking Garage,333 Civic Center Dr,1st floor of parking garage,Santa Monica,CA,90401,,310-458-8516,E,,Public,24 hours daily; pay lot,,,,,,12,2,,Non-Networked,,GPS,34.010528,-118.4898,2023-01-10,38521,2023-02-14 15:54:11 UTC,LG,,,2010-11-15,,,,,CHADEMO J1772,US,,,,Public,,public,,,MUNI_GOV,,,,,,,Free,,,,,,,,,SOLAR,false,,,,,,,
ELEC,Denver International Airport - Canopy Airport Parking,8100 Tower Rd,Located in the indoor valet and covered self-parking,Commerce City,CO,80022,,303-574-9800,E,,Public,24 hours daily; pay lot,,,,,18,9,1,,Non-Networked,,GPS,39.843886,-104.771138,2021-12-09,38522,2022-02-10 19:42:29 UTC,P,,,2010-10-19,,,,,CHADEMO J1772 NEMA515,US,,,,Public,,public,,,PARKING_LOT,,,,,,,Free,,,,,,,,,,false,,,,,,,
ELEC,Clay Cooley Nissan,4914 S IH-35,,Austin,TX,78745,,512-444-1400,E,,Public - Call ahead,Dealership business hours,,,,,,2,1,,Non-Networked,,200-9,30.206145,-97.759109,2020-06-09,39114,2023-02-15 22:45:41 UTC,P,,,2011-01-15,,,,,CHADEMO J1772,US,,,,Public - Appeler à l'avance,,public,CALL,,CAR_DEALER,,,,,,,Free,,,,,,,,,,false,,,,,,,
ELEC,Town North Nissan,9160A Research Blvd,,Austin,TX,78758,,512-451-7411,E,,Public - Call ahead,Dealership business hours,,,,,,1,1,,Non-Networked,,200-9,30.374542,-97.731445,2022-12-13,39711,2023-02-14 15:54:11 UTC,P,,,2011-03-15,,,,,CHADEMO J1772 J1772COMBO,US,,,,Public - Appeler à l'avance,,public,CALL,,CAR_DEALER,,,,,,,Free,,,,,,,,,,false,,,,,,,
ELEC,Grubbs Nissan,310 Airport Fwy,,Bedford,TX,76022,,817-268-1000,E,,Public - Call ahead,Dealership business hours,,,,,,1,2,,Non-Networked,,200-9,32.839339,-97.160994,2022-03-07,39714,2023-02-14 15:54:11 UTC,P,,,2011-03-15,,,,,CHADEMO J1772 J1772COMBO,US,,,,Public - Appeler à l'avance,,public,CALL,,CAR_DEALER,,,,,,,Free,,,,,,,,,,false,,,,,,,
ELEC,Clay Cooley Nissan,39690 Lyndon B Johnson Fwy,,Dallas,TX,75237,,972-709-2000,E,,Public - Call ahead,Dealership business hours,,,,,,1,1,,Non-Networked,,200-9,32.646784,-96.863492,2022-03-07,39718,2023-02-14 15:54:11 UTC,P,,,2010-12-30,,,,,CHADEMO J1772 J1772COMBO,US,,,,Public - Appeler à l'avance,,public,CALL,,CAR_DEALER,,,,,,,Free,,,,,,,,,,false,,,,,,,
ELEC,Nissan of Fort Worth,3451 W Loop 820 S,,Fort Worth,TX,76116,,817-560-9000,E,,Public - Call ahead,Dealership business hours,,,,,,1,1,,Non-Networked,,200-9,32.721585,-97.478539,2020-06-09,39723,2023-02-15 22:45:41 UTC,P,,,2011-03-15,,,,,CHADEMO J1772,US,,,,Public - Appeler à l'avance,,public,CALL,,CAR_DEALER,,,,,,,Free,,,,,,,,,,false,,,,,,,
ELEC,Texas Nissan of Grapevine,1401 W State Highway 114,,Grapevine,TX,76051,,817-601-3600,E,,Public - Call ahead,Dealership business hours,,,,,,1,1,,Non-Networked,,200-9,32.928183,-97.09448,2022-03-07,39724,2023-02-14 15:54:11 UTC,P,,,2011-03-15,,,,,CHADEMO J1772 J1772COMBO,US,,,,Public - Appeler à l'avance,,public,CALL,,CAR_DEALER,,,,,,,Free,,,,,,,,,,false,,,,,,,
ELEC,Baker Nissan North,19630 Northwest Fwy,,Houston,TX,77065,,281-890-5656,E,,Public - Call ahead,Dealership business hours,,,,,,1,2,,Non-Networked,,200-9,29.913418,-95.611942,2022-03-07,39726,2023-02-14 15:54:11 UTC,P,,,2011-03-15,,,,,CHADEMO J1772 J1772COMBO,US,,,,Public - Appeler à l'avance,,public,CALL,,CAR_DEALER,,,,,,,Free,,,,,,,,,,false,,,,,,,
ELEC,Central Houston Nissan,2901 S Loop W,,Houston,TX,77054,,713-661-9955,E,,Public - Call ahead,Dealership business hours,,,,,,1,4,,Non-Networked,,200-9,29.676558,-95.422537,2022-03-07,39727,2023-02-14 15:54:11 UTC,P,,,2011-03-15,,,,,CHADEMO J1772 J1772COMBO,US,,,,Public - Appeler à l'avance,,public,CALL,,CAR_DEALER,,,,,,,Free,,,,,,,,,,false,,,,,,,
ELEC,McDavid Nissan,11911 Gulf Fwy,,Houston,TX,77034,,713-941-0600,E,,Public - Call ahead,Dealership business hours,,,,,,1,1,,Non-Networked,,200-9,29.625565,-95.22531,2020-06-09,39728,2023-02-15 22:45:41 UTC,P,,,2011-03-15,,,,,CHADEMO J1772,US,,,,Public - Appeler à l'avance,,public,CALL,,CAR_DEALER,,,,,,,Free,,,,,,,,,,false,,,,,,,
ELEC,Mossy Nissan,12150 Katy Fwy,,Houston,TX,77079,,281-496-2200,E,,Public - Call ahead,Dealership business hours,,,,,,1,1,,Non-Networked,,GPS,29.785494,-95.60022,2020-06-09,39729,2023-02-15 22:45:41 UTC,P,,,2011-03-15,,,,,CHADEMO J1772,US,,,,Public - Appeler à l'avance,,public,CALL,,CAR_DEALER,,,,,,,Free,,,,,,,,,,false,,,,,,,
ELEC,Tom Peacock Nissan,15300 North Fwy,,Houston,TX,77090,,855-969-1871,E,,Public - Call ahead,Dealership business hours,,,,,,1,1,,Non-Networked,,200-9,29.990205,-95.423096,2022-03-07,39730,2023-02-14 15:54:11 UTC,P,,,2011-03-15,,,,,CHADEMO J1772,US,,,,Public - Appeler à l'avance,,public,CALL,,CAR_DEALER,,,,,,,Free,,,,,,,,,,false,,,,,,,
ELEC,Clay Cooley Nissan,1500 E Airport Fwy,,Irving,TX,75062,,972-438-4300,E,,Public - Call ahead,Dealership business hours,,,,,,1,2,,Non-Networked,,200-9,32.849437,-96.914294,2022-06-14,39732,2023-02-14 15:54:11 UTC,P,,,2011-03-15,,,,,CHADEMO J1772 J1772COMBO,US,,,,Public - Appeler à l'avance,,public,CALL,,CAR_DEALER,,,,,,,Free,,,,,,,,,,true,,,,,,,
ELEC,AutoNation Nissan - Lewisville,1601 S Stemmons Fwy,,Lewisville,TX,75067,,972-420-9500,E,,Public - Call ahead,Dealership business hours,,,,,,1,1,,Non-Networked,,200-9,33.022937,-96.988337,2022-03-07,39738,2023-02-14 15:54:11 UTC,P,,,2011-03-15,,,,,CHADEMO J1772 J1772COMBO,US,,,,Public - Appeler à l'avance,,public,CALL,,CAR_DEALER,,,,,,,Free,,,,,,,,,,false,,,,,,,
ELEC,Nissan of McKinney,3800 S Central Expy,,McKinney,TX,75069,,214-544-4900,E,,Public - Call ahead,Dealership business hours,,,,,,1,1,,Non-Networked,,200-9,33.161606,-96.644662,2022-03-07,39741,2023-02-14 15:54:11 UTC,P,,,2011-03-15,,,,,CHADEMO J1772,US,,,,Public - Appeler à l'avance,,public,CALL,,CAR_DEALER,,,,,,,Free,,,,,,,,,,false,,,,,,,
ELEC,Trophy Nissan,5031 N Galloway Ave,,Mesquite,TX,75150,,972-613-2200,E,,Public - Call ahead,Dealership business hours,,,,,,1,2,,Non-Networked,,200-9,32.829838,-96.629967,2022-03-07,39742,2023-02-14 15:54:11 UTC,P,,,2011-03-15,,,,,CHADEMO J1772 J1772COMBO,US,,,,Public - Appeler à l'avance,,public,CALL,,CAR_DEALER,,,,,,,Free,,,,,,,,,,false,,,,,,,
ELEC,Courtesy Nissan,1777 N Central Expy,,Richardson,TX,75080,,,E,,Public - Call ahead,Dealership business hours; contact 972-231-2600 for more information,,,,,,2,1,,Non-Networked,,GPS,32.97135,-96.719803,2022-03-07,39746,2023-02-14 15:54:11 UTC,P,,,2011-03-15,,,,,CHADEMO J1772,US,,,,Public - Appeler à l'avance,,public,CALL,,CAR_DEALER,,,,,,,Free,,,,,,,,,,false,,,,,,,
ELEC,Sterling McCall Nissan,12230 Southwest Fwy,,Stafford,TX,77477,,281-243-8600,E,,Public - Call ahead,Dealership business hours,,,,,,1,1,,Non-Networked,,200-9,29.645808,-95.57612,2022-03-07,39756,2023-02-14 15:54:11 UTC,P,,,2011-03-15,,,,,CHADEMO J1772 J1772COMBO,US,,,,Public - Appeler à l'avance,,public,CALL,,CAR_DEALER,,,,,,,Free,,,,,,,,,,false,,,,,,,
ELEC,Garlyn Shelton Nissan,5420 Midway Dr,,Temple,TX,76502,,254-773-4828,E,,Public - Call ahead,Dealership business hours,,,,,,1,1,,Non-Networked,,200-9,31.079653,-97.410328,2020-06-09,39757,2023-02-15 22:45:41 UTC,P,,,2011-03-15,,,,,CHADEMO J1772,US,,,,Public - Appeler à l'avance,,public,CALL,,CAR_DEALER,,,,,,,Free,,,,,,,,,,false,,,,,,,
ELEC,Passport Nissan - Alexandria,150 S Pickett St,,Alexandria,VA,22304,,703-823-9000,E,,Public - Call ahead,Dealership business hours,,,,,,3,1,,Non-Networked,,200-9,38.809675,-77.122192,2022-03-07,39763,2023-02-14 15:54:11 UTC,P,,,2011-03-15,,,,,CHADEMO J1772 J1772COMBO,US,,,,Public - Appeler à l'avance,,public,CALL,,CAR_DEALER,,,,,,,Free,,,,,,,,,,false,,,,,,,
ELEC,Priority Nissan - Chantilly,14840 Stonecroft Center Ct,,Chantilly,VA,20151,,703-889-3700,E,,Public - Call ahead,Dealership business hours,,,,,,2,1,,Non-Networked,,200-9,38.899751,-77.460168,2022-03-07,39764,2023-02-14 15:54:11 UTC,P,,,2011-03-15,,,,,CHADEMO J1772,US,,,,Public - Appeler à l'avance,,public,CALL,,CAR_DEALER,,,,,,,Free,,,,,,,,,,false,,,,,,,
ELEC,Colonial Nissan,200 Myers Dr,,Charlottesville,VA,22901,,434-978-3711,E,,Public - Call ahead,Dealership business hours,,,,,,2,1,,Non-Networked,,GPS,38.086121,-78.474663,2022-03-07,39765,2023-02-14 15:54:11 UTC,P,,,2011-03-15,,,,,CHADEMO J1772,US,,,,Public - Appeler à l'avance,,public,CALL,,CAR_DEALER,,,,,,,Free,,,,,,,,,,false,,,,,,,
ELEC,Brown's Fairfax Nissan,11010 Fairfax Blvd,,Fairfax,VA,22030,,703-591-8009,E,,Public - Call ahead,Dealership business hours,,,,,,1,1,,Non-Networked,,200-9,38.85358,-77.324803,2022-03-07,39766,2023-02-14 15:54:11 UTC,P,,,2011-03-15,,,,,CHADEMO J1772 J1772COMBO,US,,,,Public - Appeler à l'avance,,public,CALL,,CAR_DEALER,,,,,,,Free,,,,,,,,,,false,,,,,,,
ELEC,Pomoco Nissan - Hampton,1134 W Mercury Blvd,,Hampton,VA,23666,,757-838-6111,E,,Public - Call ahead,Dealership business hours,,,,,,2,1,,Non-Networked,,200-9,37.042363,-76.388316,2020-06-09,39768,2023-02-15 22:45:41 UTC,P,,,2011-03-15,,,,,CHADEMO J1772,US,,,,Public - Appeler à l'avance,,public,CALL,,CAR_DEALER,,,,,,,Free,,,,,,,,,,false,,,,,,,
ELEC,Sheehy Nissan - Manassas,9010 Liberia Ave,,Manassas,VA,20110,,703-361-5161,E,,Public - Call ahead,Dealership business hours,,,,,,2,1,,Non-Networked,,200-9,38.760854,-77.459274,2022-03-07,39769,2023-02-14 15:54:11 UTC,P,,,2011-03-15,,,,,CHADEMO J1772 J1772COMBO,US,,,,Public - Appeler à l'avance,,public,CALL,,CAR_DEALER,,,,,,,Free,,,,,,,,,,false,,,,,,,
ELEC,First Team Nissan,6520 Peters Creek Rd,,Roanoke,VA,24019,,540-362-4800,E,,Public - Call ahead,Dealership business hours,,,,,,1,1,,Non-Networked,,GPS,37.345779,-79.962578,2022-03-07,39772,2023-02-14 15:54:11 UTC,P,,,2011-03-15,,,,,CHADEMO J1772,US,,,,Public - Appeler à l'avance,,public,CALL,,CAR_DEALER,,,,,,,Free,,,,,,,,,,false,,,,,,,
ELEC,Brown's Dulles Nissan,45155 Towlern Pl,,Sterling,VA,20166,,703-948-1100,E,,Public - Call ahead,Dealership business hours,,,,,,1,1,,Non-Networked,,200-9,39.010459,-77.438399,2022-03-07,39773,2023-02-14 15:54:11 UTC,P,,,2011-03-15,,,,,CHADEMO J1772 J1772COMBO,US,,,,Public - Appeler à l'avance,,public,CALL,,CAR_DEALER,,,,,,,Free,,,,,,,,,,false,,,,,,,
ELEC,Priority Nissan,8525 Leesburg Pike,,Vienna,VA,22182,,703-442-8700,E,,Public - Call ahead,Dealership business hours,,,,,,2,1,,Non-Networked,,200-9,38.927033,-77.240836,2022-03-07,39774,2023-02-14 15:54:11 UTC,P,,,2011-03-15,,,,,CHADEMO J1772,US,,,,Public - Appeler à l'avance,,public,CALL,,CAR_DEALER,,,,,,,Free,,,,,,,,,,false,,,,,,,
ELEC,Tri-State Nissan,1230 Millwood Pike,,Winchester,VA,22602,,,E,,Public - Call ahead,Dealership business hours; contact 540-667-6800 for more information,,,,,,3,1,,Non-Networked,,GPS,39.156514,-78.147297,2022-03-07,39775,2023-02-14 15:54:11 UTC,P,,,2011-03-15,,,,,CHADEMO J1772 J1772COMBO,US,,,,Public - Appeler à l'avance,,public,CALL,,CAR_DEALER,,,,,,,Free,,,,,,,,,,false,,,,,,,
ELEC,Bellingham Nissan,1516 Iowa St,,Bellingham,WA,98229,,360-733-7300,E,,Public - Call ahead,Dealership business hours,,,,,,2,1,,Non-Networked,,200-9,48.755607,-122.454132,2020-06-09,39778,2021-03-11 23:22:17 UTC,P,,,2011-03-15,,,,,CHADEMO J1772,US,,,,Public - Appeler à l'avance,,public,CALL,,CAR_DEALER,,,,,,,Free,,,,,,,,,,false,,,,,,,
ELEC,Burien Nissan,16042 1st Ave S,,Burien,WA,98148,,206-242-7070,E,,Public - Call ahead,Dealership business hours,,,,,,2,1,,Non-Networked,,200-9,47.458466,-122.333257,2022-02-10,39780,2022-02-10 19:42:29 UTC,P,,,2011-03-15,,,,,CHADEMO J1772,US,,,,Public - Appeler à l'avance,,public,CALL,,CAR_DEALER,,,,,,,Free,,,,,,,,,,false,,,,,,,
ELEC,Olympia Nissan,2220 Carriage Dr SW,,Olympia,WA,98502,,360-352-8558,E,,Public - Call ahead,Dealership business hours,,,,,,1,1,,Non-Networked,,200-9,47.031067,-122.930247,2022-03-07,39786,2023-02-14 15:54:11 UTC,P,,,2011-03-15,,,,,CHADEMO J1772 J1772COMBO,US,,,,Public - Appeler à l'avance,,public,CALL,,CAR_DEALER,,,,,,,Free,,,,,,,,,,false,,,,,,,
ELEC,Dan Wilder Nissan,53 Jetta Way,,Port Angeles,WA,98362,,360-452-9268,E,,Public - Call ahead,Dealership business hours,,,,,,2,1,,Non-Networked,,200-9,48.102863,-123.342273,2022-02-10,39788,2022-02-10 19:42:29 UTC,P,,,2011-03-15,,,,,CHADEMO J1772,US,,,,Public - Appeler à l'avance,,public,CALL,,CAR_DEALER,,,,,,,Free,,,,,,,,,,false,,,,,,,
ELEC,Bill Korum's Puyallup Nissan,101 Valley Ave NW,,Puyallup,WA,98371,,253-848-4507,E,,Public - Call ahead,Dealership business hours,,,,,,1,1,,Non-Networked,,200-9,47.207367,-122.294997,2022-02-10,39789,2022-02-10 19:42:29 UTC,P,,,2011-03-15,,,,,CHADEMO J1772 J1772COMBO,US,,,,Public - Appeler à l'avance,,public,CALL,,CAR_DEALER,,,,,,,Free,,,,,,,,,,false,,,,,,,
ELEC,Younker Nissan,3401 E Valley Rd,,Renton,WA,98058,,,E,,Public,Dealership business hours,,,,,,1,1,,Non-Networked,,GPS,47.448354,-122.2188,2022-03-07,39791,2023-02-14 15:54:11 UTC,P,,,2011-03-15,,,,,CHADEMO J1772 J1772COMBO,US,,,,Public,,public,,,CAR_DEALER,,,,,,,Free,,,,,,,,,,false,,,,,,,
ELEC,Dave Smith Nissan - Spokane,6901 E Sprague Ave,,Spokane Valley,WA,99212,,509-924-6242,E,,Public - Call ahead,Dealership business hours,,,,,,2,1,,Non-Networked,,200-9,47.657264,-117.312518,2022-02-10,39796,2022-02-10 19:42:29 UTC,P,,,2011-03-15,,,,,CHADEMO J1772,US,,,,Public - Appeler à l'avance,,public,CALL,,CAR_DEALER,,,,,,,Free,,,,,,,,,,false,,,,,,,
ELEC,Tacoma Nissan,4030 S Tacoma Way,,Tacoma,WA,98409,,253-473-6200,E,,Public - Call ahead,Dealership business hours,,,,,,1,1,,Non-Networked,,200-9,47.21978,-122.48576,2022-02-10,39797,2022-02-10 19:42:29 UTC,P,,,2011-03-15,,,,,CHADEMO J1772 J1772COMBO,US,,,,Public - Appeler à l'avance,,public,CALL,,CAR_DEALER,,,,,,,Free,,,,,,,,,,false,,,,,,,
ELEC,Alan Webb Nissan,3608 NE Auto Mall Dr,,Vancouver,WA,98662,,360-892-9004,E,,Public - Call ahead,Dealership business hours,,,,,,1,1,,Non-Networked,,200-9,45.648094,-122.597954,2022-02-10,39798,2022-02-10 19:42:29 UTC,P,,,2011-03-15,,,,,CHADEMO J1772 J1772COMBO,US,,,,Public - Appeler à l'avance,,public,CALL,,CAR_DEALER,,,,,,,Free,,,,,,,,,,false,,,,,,,
ELEC,Mountain View Nissan,2100 S Market St,,Chattanooga,TN,37408,,423-756-1500,E,,Public - Call ahead,Dealership business hours,,,,,,1,1,,Non-Networked,,200-9,35.030251,-85.308376,2020-06-09,39802,2023-02-15 22:45:41 UTC,P,,,2011-03-15,,,,,CHADEMO J1772,US,,,,Public - Appeler à l'avance,,public,CALL,,CAR_DEALER,,,,,,,Free,,,,,,,,,,false,,,,,,,
ELEC,Harold Mathews Nissan,185 Highway 76,,Clarksville,TN,37043,,931-552-7555,E,,Public - Call ahead,Dealership business hours,,,,,,1,1,,Non-Networked,,200-9,36.513006,-87.268667,2022-02-10,39803,2022-02-10 19:42:29 UTC,P,,,2011-03-15,,,,,CHADEMO J1772,US,,,,Public - Appeler à l'avance,,public,CALL,,CAR_DEALER,,,,,,,Free,,,,,,,,,,false,,,,,,,
ELEC,Nissan of Cool Springs,212 Comtide Ct,,Franklin,TN,37067,,615-790-2500,E,,Public - Call ahead,Dealership business hours,,,,,,1,1,,Non-Networked,,200-8,35.957857,-86.80853,2022-02-10,39808,2022-02-10 19:42:29 UTC,P,,,2011-03-15,,,,,CHADEMO J1772 J1772COMBO,US,,,,Public - Appeler à l'avance,,public,CALL,,CAR_DEALER,,,,,,,Free,,,,,,,,,,false,,,,,,,
ELEC,Newton Nissan of Gallatin,1461 Nashville Pike,,Gallatin,TN,37066,,615-451-6827,E,,Public - Call ahead,Dealership business hours,,,,,,1,1,,Non-Networked,,200-9,36.361376,-86.494932,2022-02-10,39809,2022-02-10 19:42:29 UTC,P,,,2011-03-15,,,,,CHADEMO J1772 J1772COMBO,US,,,,Public - Appeler à l'avance,,public,CALL,,CAR_DEALER,,,,,,,Free,,,,,,,,,,false,,,,,,,
ELEC,Nissan of Rivergate,1550 Gallatin Pike N,,Madison,TN,37115,,615-865-7220,E,,Public - Call ahead,Dealership business hours,,,,,,1,1,,Non-Networked,,GPS,36.29062,-86.7051,2022-02-10,39815,2022-02-10 19:42:29 UTC,P,,,2019-05-01,,,,,CHADEMO J1772 J1772COMBO,US,,,,Public - Appeler à l'avance,,public,CALL,,CAR_DEALER,,,,,,,Free,,,,,,,,,,false,,,,,,,
ELEC,Jim Keras Nissan,2080 Covington Pike,,Memphis,TN,38128,,901-373-2800,E,,Public - Call ahead,Dealership business hours,,,,,,1,1,,Non-Networked,,200-9,35.181031,-89.895533,2022-03-07,39819,2023-02-14 15:54:11 UTC,P,,,2019-05-01,,,,,CHADEMO J1772 J1772COMBO,US,,,,Public - Appeler à l'avance,,public,CALL,,CAR_DEALER,,,,,,,Free,,,,,,,,,,false,,,,,,,
ELEC,Nissan of Murfreesboro,814 Memorial Blvd,,Murfreesboro,TN,37129,,615-893-0252,E,,Public - Call ahead,Dealership business hours,,,,,,1,2,,Non-Networked,,200-9,35.854156,-86.394979,2022-02-10,39821,2022-02-10 19:42:29 UTC,P,,,2011-03-15,,,,,CHADEMO J1772 J1772COMBO,US,,,,Public - Appeler à l'avance,,public,CALL,,CAR_DEALER,,,,,,,Free,,,,,,,,,,false,,,,,,,
ELEC,Action Nissan,307 Thompson Ln,,Nashville,TN,37211,,615-834-8244,E,,Public - Call ahead,Dealership business hours,,,,,,2,1,,Non-Networked,,200-9,36.110606,-86.743585,2022-02-10,39822,2022-02-10 19:42:29 UTC,P,,,2011-03-15,,,,,CHADEMO J1772 J1772COMBO,US,,,,Public - Appeler à l'avance,,public,CALL,,CAR_DEALER,,,,,,,Free,,,,,,,,,,false,,,,,,,
ELEC,Downtown Nashville Nissan,25 Vantage Way,,Nashville,TN,37228,,615-248-5100,E,,Public - Call ahead,Dealership business hours,,,,,,2,1,,Non-Networked,,GPS,36.191053,-86.793132,2022-02-10,39823,2022-02-10 19:42:29 UTC,P,,,2011-03-15,,,,,CHADEMO J1772,US,,,,Public - Appeler à l'avance,,public,CALL,,CAR_DEALER,,,,,,,Free,,,,,,,,,,false,,,,,,,
ELEC,Lithia Nissan of Bend,1835 NE Highway 20,,Bend,OR,97701,,541-389-1177,E,,Public - Call ahead,Dealership business hours,,,,,,2,1,,Non-Networked,,GPS,44.055213,-121.277279,2022-03-07,39828,2023-02-14 15:54:11 UTC,P,,,2011-03-15,,,,,CHADEMO J1772,US,,,,Public - Appeler à l'avance,,public,CALL,,CAR_DEALER,,,,,,,Free,,,,,,,,,,false,,,,,,,
ELEC,Nissan of Salem,2755 Mission St SE,,Salem,OR,97302,,503-581-3849,E,,Public - Call ahead,Dealership business hours,,,,,,1,1,,Non-Networked,,200-9,44.921582,-123.006236,2022-03-07,39839,2023-02-14 15:54:11 UTC,P,,,2011-03-15,,,,,CHADEMO J1772 J1772COMBO,US,,,,Public - Appeler à l'avance,,public,CALL,,CAR_DEALER,,,,,,,Free,,,,,,,,,,false,,,,,,,
ELEC,Ray Schultens Nissan,2400 W 6th St,,The Dalles,OR,97058,,541-296-4613,E,,Public - Call ahead,Dealership business hours,,,,,,2,1,,Non-Networked,,GPS,45.613979,-121.20996,2022-02-10,39840,2022-02-10 19:42:29 UTC,P,,,2011-03-15,,,,,CHADEMO J1772 J1772COMBO,US,,,,Public - Appeler à l'avance,,public,CALL,,CAR_DEALER,,,,,,,Free,,,,,,,,,,false,,,,,,,
ELEC,Dick Smith Nissan,3670 Fernandina Rd,,Columbia,SC,29210,,803-772-8700,E,,Public - Call ahead,Dealership business hours,,,,,,2,1,,Non-Networked,,200-9,34.055164,-81.128164,2020-06-09,39842,2021-03-11 23:22:17 UTC,P,,,2011-03-15,,,,,CHADEMO J1772,US,,,,Public - Appeler à l'avance,,public,CALL,,CAR_DEALER,,,,,,,Free,,,,,,,,,,false,,,,,,,
ELEC,Dick Smith Nissan,5536 Sunset Blvd,,Lexington,SC,29072,,803-957-7760,E,,Public - Call ahead,Dealership business hours,,,,,,1,1,,Non-Networked,,200-9,33.997902,-81.222504,2022-03-07,39844,2023-02-14 15:54:11 UTC,P,,,2011-03-15,,,,,CHADEMO J1772,US,,,,Public - Appeler à l'avance,,public,CALL,,CAR_DEALER,,,,,,,Free,,,,,,,,,,false,,,,,,,
ELEC,Wolfchase Nissan,2956 N Germantown Rd,,Bartlett,TN,38133,,901-255-3800,E,,Public - Call ahead,Dealership business hours,,,,,,2,1,,Non-Networked,,200-9,35.205818,-89.791337,2022-03-07,39846,2023-02-14 15:54:11 UTC,P,,,2011-03-15,,,,,CHADEMO J1772,US,,,,Public - Appeler à l'avance,,public,CALL,,CAR_DEALER,,,,,,,Free,,,,,,,,,,false,,,,,,,
ELEC,Benton Nissan - Hoover,1640 Montgomery Hwy,,Birmingham,AL,35216,,205-979-5420,E,,Public - Call ahead,Dealership business hours,,,,,,1,1,,Non-Networked,,200-9,33.394903,-86.807186,2022-03-07,39849,2023-02-14 15:54:11 UTC,P,,,2011-03-15,,,,,CHADEMO J1772,US,,,,Public - Appeler à l'avance,,public,CALL,,CAR_DEALER,,,,,,,Free,,,,,,,,,,false,,,,,,,
ELEC,Lynn Layton Nissan,2402 Highway 31 S,,Decatur,AL,35601,,256-353-8150,E,,Public - Call ahead,Dealership business hours,,,,,,1,1,,Non-Networked,,200-9,34.563857,-86.972193,2022-03-07,39851,2023-02-14 15:54:11 UTC,P,,,2011-03-15,,,,,CHADEMO J1772,US,,,,Public - Appeler à l'avance,,public,CALL,,CAR_DEALER,,,,,,,Free,,,,,,,,,,false,,,,,,,
ELEC,Jack Ingram Motors,227 Eastern Bypass,,Montgomery,AL,36117,,,E,,Public - Call ahead,Dealership business hours,,,,,,1,1,,Non-Networked,,GPS,32.376832,-86.208559,2020-07-13,39852,2023-02-15 22:45:41 UTC,P,,,2011-03-15,,,,,CHADEMO J1772,US,,,,Public - Appeler à l'avance,,public,CALL,,CAR_DEALER,,,,,,,Free,,,,,,,,,,false,,,,,,,
ELEC,AutoNation Nissan - Chandler,1350 S Gilbert Rd,,Chandler,AZ,85286,,480-461-4300,E,,Public - Call ahead,Dealership business hours,,,,,,2,1,,Non-Networked,,GPS,33.286316,-111.791107,2022-02-10,39854,2022-02-10 19:42:29 UTC,P,,,2011-03-15,,,,,CHADEMO J1772 J1772COMBO,US,,,,Public - Appeler à l'avance,,public,CALL,,CAR_DEALER,,,,,,,Free,,,,,,,,,,false,,,,,,,
ELEC,Larry H Miller Nissan - Mesa,2025 W Riverview Auto Dr,,Mesa,AZ,85201,,480-655-4000,E,,Public - Call ahead,Dealership business hours,,,,,,2,1,,Non-Networked,,GPS,33.434313,-111.872266,2020-06-09,39857,2023-02-15 22:45:41 UTC,P,,,2011-03-15,,,,,CHADEMO J1772 J1772COMBO,US,,,,Public - Appeler à l'avance,,public,CALL,,CAR_DEALER,,,,,,,Free,,,,,,,,,,false,,,,,,,
ELEC,ABC Nissan,1300 E Camelback Rd,,Phoenix,AZ,85014,,602-264-2332,E,,Public - Call ahead,Dealership business hours,,,,,,1,1,,Non-Networked,,GPS,33.509862,-112.054162,2022-02-10,39859,2022-02-10 19:42:29 UTC,P,,,2011-03-15,,,,,CHADEMO J1772 J1772COMBO,US,,,,Public - Appeler à l'avance,,public,CALL,,CAR_DEALER,,,,,,,Free,,,,,,,,,,false,,,,,,,
ELEC,Midway Nissan,2209 W Bell Rd,,Phoenix,AZ,85023,,602-635-6512,E,,Public - Call ahead,Dealership business hours,,,,,,2,2,,Non-Networked,,GPS,33.639038,-112.108088,2022-03-07,39861,2023-02-14 15:54:11 UTC,P,,,2011-03-15,,,,,CHADEMO J1772 J1772COMBO,US,,,,Public - Appeler à l'avance,,public,CALL,,CAR_DEALER,,,,,,,Free,,,,,,,,,,false,,,,,,,
ELEC,Pinnacle Nissan,7601 E Frank Lloyd Wright Blvd,,Scottsdale,AZ,85260,,480-998-9800,E,,Public - Call ahead,Dealership business hours,,,,,,3,1,,Non-Networked,,200-9,33.635224,-111.915739,2022-02-10,39862,2022-02-10 19:42:29 UTC,P,,,2011-03-15,,,,,CHADEMO J1772 J1772COMBO,US,,,,Public - Appeler à l'avance,,public,CALL,,CAR_DEALER,,,,,,,Free,,,,,,,,,,false,,,,,,,
ELEC,AutoNation Nissan - Tempe,7755 S Autoplex Loop,,Tempe,AZ,85284,,480-598-6000,E,,Public - Call ahead,Dealership business hours,,,,,,1,1,,Non-Networked,,200-9,33.346812,-111.967793,2022-02-10,39863,2022-02-10 19:42:29 UTC,P,,,2011-03-15,,,,,CHADEMO J1772 J1772COMBO,US,,,,Public - Appeler à l'avance,,public,CALL,,CAR_DEALER,,,,,,,Free,,,,,,,,,,false,,,,,,,
ELEC,Jim Click Nissan,800 W Auto Mall Dr,,Tucson,AZ,85705,,520-884-4100,E,,Public - Call ahead,Dealership business hours,,,,,,2,1,,Non-Networked,,GPS,32.289823,-110.985646,2020-06-09,39864,2021-03-11 23:22:17 UTC,P,,,2011-03-15,,,,,CHADEMO J1772,US,,,,Public - Appeler à l'avance,,public,CALL,,CAR_DEALER,,,,,,,Free,,,,,,,,,,false,,,,,,,
ELEC,Antioch Nissan,1831 Auto Center Dr,,Antioch,CA,94509,,925-755-2600,E,,Public - Call ahead,Dealership business hours,,,,,,1,1,,Non-Networked,,200-9,38.007799,-121.832042,2022-02-10,39870,2022-02-10 19:42:29 UTC,P,,,2011-03-15,,,,,CHADEMO J1772 J1772COMBO,US,,,,Public - Appeler à l'avance,,public,CALL,,CAR_DEALER,,,,,,,Free,,,,,,,,,,false,,,,,,,
ELEC,Nissan of Bakersfield,2800 Pacheco Rd,,Bakersfield,CA,93313,,661-835-8600,E,,Public - Call ahead,Dealership business hours,,,,,,3,1,,Non-Networked,,200-9,35.310723,-119.035324,2022-05-05,39871,2023-02-14 15:54:11 UTC,P,,,2011-03-15,,,,,CHADEMO J1772 J1772COMBO,US,,,,Public - Appeler à l'avance,,public,CALL,,CAR_DEALER,,,,,,,Free,,,,,,,,,,false,,,,,,,
ELEC,Buena Park Nissan,6501 Auto Center Dr,,Buena Park,CA,90621,,714-739-0800,E,,Public - Call ahead,Dealership business hours,,,,,,3,1,,Non-Networked,,200-9,33.865497,-117.995215,2022-02-10,39872,2022-02-10 19:42:29 UTC,P,,,2011-03-15,,,,,CHADEMO J1772 J1772COMBO,US,,,,Public - Appeler à l'avance,,public,CALL,,CAR_DEALER,,,,,,,Free,,,,,,,,,,false,,,,,,,
ELEC,Carson Nissan,1505 E 223rd St,,Carson,CA,90745,,310-221-5119,E,,Public - Call ahead,Dealership business hours,,,,,,2,1,,Non-Networked,,200-9,33.824968,-118.245675,2022-02-10,39873,2022-02-10 19:42:29 UTC,P,,,2011-03-15,,,,,CHADEMO J1772 J1772COMBO,US,,,,Public - Appeler à l'avance,,public,CALL,,CAR_DEALER,,,,,,,Free,,,,,,,,,,false,,,,,,,
ELEC,Palm Springs Nissan,68177 Kyle Rd,,Cathedral City,CA,92234,,760-328-2828,E,,Public - Call ahead,Dealership business hours,,,,,,1,1,,Non-Networked,,GPS,33.78414,-116.471,2020-06-09,39874,2023-02-15 22:45:41 UTC,P,,,2011-03-15,,,,,CHADEMO J1772,US,,,,Public - Appeler à l'avance,,public,CALL,,CAR_DEALER,,,,,,,Free,,,,,,,,,,false,,,,,,,
ELEC,Cerritos Nissan,18707 Studebaker Rd,,Cerritos,CA,90703,,562-402-2277,E,,Public - Call ahead,Dealership business hours,,,,,,1,1,,Non-Networked,,200-9,33.861544,-118.100471,2022-02-10,39875,2022-02-10 19:42:29 UTC,P,,,2011-03-15,,,,,CHADEMO J1772 J1772COMBO,US,,,,Public - Appeler à l'avance,,public,CALL,,CAR_DEALER,,,,,,,Free,,,,,,,,,,false,,,,,,,
ELEC,Chico Nissan,575 Manzanita Ave,,Chico,CA,95926,,530-891-1777,E,,Public - Call ahead,Dealership business hours,,,,,,3,1,,Non-Networked,,200-9,39.756332,-121.843715,2022-02-10,39876,2022-02-10 19:42:29 UTC,P,,,2011-03-15,,,,,CHADEMO J1772 J1772COMBO,US,,,,Public - Appeler à l'avance,,public,CALL,,CAR_DEALER,,,,,,,Free,,,,,,,,,,false,,,,,,,
ELEC,Puente Hills Nissan,17320 E Gale Ave,,City of Industry,CA,91748,,,E,,Public - Call ahead,Dealership business hours,,,,,,2,1,,Non-Networked,,GPS,33.997621,-117.928216,2022-02-10,39877,2022-02-10 19:42:29 UTC,P,,,2011-03-15,,,,,CHADEMO J1772 J1772COMBO,US,,,,Public - Appeler à l'avance,,public,CALL,,CAR_DEALER,,,,,,,Free,,,,,,,,,,false,,,,,,,
ELEC,Nissan of Serramonte,1500 Collins Ave,,Colma,CA,94014,,650-550-7200,E,,Public - Call ahead,Dealership business hours,,,,,,1,1,,Non-Networked,,200-8,37.671267,-122.463541,2020-06-09,39879,2023-02-15 22:45:41 UTC,P,,,2011-03-15,,,,,CHADEMO J1772,US,,,,Public - Appeler à l'avance,,public,CALL,,CAR_DEALER,,,,,,,Free,,,,,,,,,,false,,,,,,,
ELEC,Larry H Miller Nissan,2575 Wardlow Rd,,Corona,CA,92882,,951-735-3360,E,,Public - Call ahead,Dealership business hours,,,,,,2,1,,Non-Networked,,200-9,33.88309,-117.615292,2020-06-09,39881,2023-02-15 22:45:41 UTC,P,,,2011-03-15,,,,,CHADEMO J1772,US,,,,Public - Appeler à l'avance,,public,CALL,,CAR_DEALER,,,,,,,Free,,,,,,,,,,false,,,,,,,
ELEC,Orange Coast Nissan,2850 Harbor Blvd,,Costa Mesa,CA,92626,,714-681-1738,E,,Public - Call ahead,Dealership business hours,,,,,,2,1,,Non-Networked,,200-9,33.675397,-117.918684,2022-06-14,39882,2023-02-14 15:54:11 UTC,P,,,2011-03-15,,,,,CHADEMO J1772 J1772COMBO,US,,,,Public - Appeler à l'avance,,public,CALL,,CAR_DEALER,,,,,,,Free,,,,,,,,,,false,,,,,,,
ELEC,Hanlees Nissan,5009 Chiles Rd,,Davis,CA,95618,,530-231-3000,E,,Public - Call ahead,Dealership business hours,,,,,,1,1,,Non-Networked,,200-9,38.55252,-121.691555,2022-03-07,39883,2023-02-14 15:54:11 UTC,P,,,2011-03-15,,,,,CHADEMO J1772,US,,,,Public - Appeler à l'avance,,public,CALL,,CAR_DEALER,,,,,,,Free,,,,,,,,,,false,,,,,,,
ELEC,Downey Nissan,7321 Firestone Blvd,,Downey,CA,90241,,562-334-1090,E,,Public - Call ahead,Dealership business hours,,,,,,4,2,,Non-Networked,,200-8,33.9473,-118.151166,2022-03-07,39884,2023-02-14 15:54:11 UTC,P,,,2011-03-15,,,,,J1772 J1772COMBO,US,,,,Public - Appeler à l'avance,,public,CALL,,CAR_DEALER,,,,,,,Free,,,,,,,,,,false,,,,,,,
ELEC,Ross Nissan El Monte,3428 N Peck Rd,,El Monte,CA,91731,,800-859-8445,E,,Public - Call ahead,Dealership business hours,,,,,,2,1,,Non-Networked,,200-9,34.069536,-118.026911,2022-02-10,39887,2022-02-10 19:42:29 UTC,P,,,2011-03-15,,,,,CHADEMO J1772 J1772COMBO,US,,,,Public - Appeler à l'avance,,public,CALL,,CAR_DEALER,,,,,,,Free,,,,,,,,,,false,,,,,,,
ELEC,Nissan of Elk Grove,8590 Laguna Grove Dr,,Elk Grove,CA,95757,,916-405-5000,E,,Public - Call ahead,Dealership business hours,,,,,,4,2,,Non-Networked,,200-9,38.402217,-121.385527,2022-02-10,39888,2022-02-10 19:42:29 UTC,P,,,2011-03-15,,,,,CHADEMO J1772,US,,,,Public - Appeler à l'avance,,public,CALL,,CAR_DEALER,,,,,,,Free,,,,,,,,,,false,,,,,,,
ELEC,Future Nissan of Folsom,12610 Auto Mall Cir,,Folsom,CA,95630,,916-608-5300,E,,Public - Call ahead,Dealership business hours,,,,,,3,1,,Non-Networked,,GPS,38.634132,-121.204871,2022-02-10,39891,2022-02-10 19:42:29 UTC,P,,,2011-03-15,,,,,CHADEMO J1772 J1772COMBO,US,,,,Public - Appeler à l'avance,,public,CALL,,CAR_DEALER,,,,,,,Free,,,,,,,,,,false,,,,,,,
ELEC,Fontana Nissan,16444 S Highland Ave,,Fontana,CA,92336,,909-574-2288,E,,Public - Call ahead,Dealership business hours,,,,,,2,1,,Non-Networked,,200-9,34.135345,-117.445732,2022-03-07,39892,2023-02-14 15:54:11 UTC,P,,,2011-03-15,,,,,CHADEMO J1772 J1772COMBO,US,,,,Public - Appeler à l'avance,,public,CALL,,CAR_DEALER,,,,,,,Free,,,,,,,,,,false,,,,,,,
ELEC,Premier Nissan of Fremont,5701 Cushing Pkwy,,Fremont,CA,94538,,510-668-8700,E,,Public - Call ahead,Dealership business hours,,,,,,2,1,,Non-Networked,,GPS,37.489389,-121.9576,2022-03-07,39893,2023-02-14 15:54:11 UTC,P,,,2011-03-15,,,,,CHADEMO J1772,US,,,,Public - Appeler à l'avance,,public,CALL,,CAR_DEALER,,,,,,,Free,,,,,,,,,,false,,,,,,,
ELEC,Garden Grove Nissan,9222 Trask Ave,,Garden Grove,CA,92844,,888-720-5391,E,,Public - Call ahead,Dealership business hours,,,,,,2,1,,Non-Networked,,200-9,33.766376,-117.968337,2022-02-10,39895,2022-02-10 19:42:29 UTC,P,,,2011-03-15,,,,,CHADEMO J1772 J1772COMBO,US,,,,Public - Appeler à l'avance,,public,CALL,,CAR_DEALER,,,,,,,Free,,,,,,,,,,false,,,,,,,
ELEC,Glendale Nissan,727 S Brand Blvd,,Glendale,CA,91204,,,E,,Public - Call ahead,Dealership business hours; contact 630-469-6100 for more information,,,,,,1,1,,Non-Networked,,200-9,34.137054,-118.25536,2022-03-07,39898,2023-02-14 15:54:11 UTC,P,,,2011-03-15,,,,,CHADEMO J1772 J1772COMBO,US,,,,Public - Appeler à l'avance,,public,CALL,,CAR_DEALER,,,,,,,Free,,,,,,,,,,false,,,,,,,
ELEC,Santa Barbara Nissan,425 S Kellogg Ave,,Goleta,CA,93117,,805-967-1130,E,,Public - Call ahead,Dealership business hours,,,,,,3,1,,Non-Networked,,200-9,34.43427,-119.820934,2022-02-10,39899,2022-02-10 19:42:29 UTC,P,,,2011-03-15,,,,,CHADEMO J1772,US,,,,Public - Appeler à l'avance,,public,CALL,,CAR_DEALER,,,,,,,Free,,,,,,,,,,false,,,,,,,
ELEC,Hayward Nissan,24644 Mission Blvd,,Hayward,CA,94544,,510-372-2800,E,,Public - Call ahead,Dealership business hours,,,,,,2,1,,Non-Networked,,200-9,37.662305,-122.075178,2022-03-07,39901,2023-02-14 15:54:11 UTC,P,,,2011-03-15,,,,,CHADEMO J1772 J1772COMBO,US,,,,Public - Appeler à l'avance,,public,CALL,,CAR_DEALER,,,,,,,Free,,,,,,,,,,false,,,,,,,
ELEC,Surf City Nissan,17331 Beach Blvd,,Huntington Beach,CA,92647,,714-500-6000,E,,Public - Call ahead,Dealership business hours,,,,,,2,1,,Non-Networked,,200-9,33.71069,-117.989861,2022-02-10,39903,2022-02-10 19:42:29 UTC,P,,,2011-03-15,,,,,CHADEMO J1772 J1772COMBO,US,,,,Public - Appeler à l'avance,,public,CALL,,CAR_DEALER,,,,,,,Free,,,,,,,,,,false,,,,,,,
ELEC,Nissan of Irvine,32 Auto Center Dr,,Irvine,CA,92618,,949-385-6044,E,,Public - Call ahead,Dealership business hours,,,,,,2,1,,Non-Networked,,200-9,33.632505,-117.723298,2022-02-10,39904,2022-02-10 19:42:29 UTC,P,,,2011-03-15,,,,,CHADEMO J1772 J1772COMBO,US,,,,Public - Appeler à l'avance,,public,CALL,,CAR_DEALER,,,,,,,,,,,,,,,,,false,,,,,,,
ELEC,Torre Nissan,79125 Highway 111,,La Quinta,CA,92253,,760-777-8999,E,,Public - Call ahead,Dealership business hours,,,,,,2,1,,Non-Networked,,GPS,33.70711,-116.283712,2022-02-10,39905,2022-02-10 19:42:29 UTC,P,,,2011-03-15,,,,,CHADEMO J1772,US,,,,Public - Appeler à l'avance,,public,CALL,,CAR_DEALER,,,,,,,Free,,,,,,,,,,false,,,,,,,
ELEC,Nissan of Downtown Los Angeles,635 W Washington Blvd,,Los Angeles,CA,90015,,213-748-4501,E,,Public - Call ahead,Dealership business hours,,,,,,1,1,,Non-Networked,,200-9,34.035168,-118.273229,2020-06-09,39906,2023-02-15 22:45:41 UTC,P,,,2011-03-15,,,,,CHADEMO J1772,US,,,,Public - Appeler à l'avance,,public,CALL,,CAR_DEALER,,,,,,,Free,,,,,,,,,,false,,,,,,,
ELEC,Universal City Nissan,3550 Cahuenga Blvd W,,Los Angeles,CA,90068,,818-769-8100,E,,Public - Call ahead,Dealership business hours,,,,,,2,1,,Non-Networked,,200-9,34.133446,-118.356601,2022-02-10,39907,2022-02-10 19:42:29 UTC,P,,,2011-03-15,,,,,CHADEMO J1772,US,,,,Public - Appeler à l'avance,,public,CALL,,CAR_DEALER,,,,,,,Free,,,,,,,,,,false,,,,,,,
ELEC,Metro Nissan of Montclair,9440 Autoplex Dr,,Montclair,CA,91763,,909-625-5575,E,,Public - Call ahead,Dealership business hours,,,,,,1,1,,Non-Networked,,200-9,34.082404,-117.694876,2022-02-10,39912,2022-02-10 19:42:29 UTC,P,,,2019-11-08,,,,,CHADEMO J1772 J1772COMBO,US,,,,Public - Appeler à l'avance,,public,CALL,,CAR_DEALER,,,,,,,Free,,,,,,,,,,false,,,,,,,
ELEC,Metro Nissan of Redlands,1665 Industrial Park Ave,,Redlands,CA,92374,,909-793-3377,E,,Public - Call ahead,Dealership business hours,,,,,,3,1,,Non-Networked,,200-9,34.065387,-117.212007,2022-03-07,39913,2023-02-14 15:54:11 UTC,P,,,2011-03-15,,,,,CHADEMO J1772 J1772COMBO,US,,,,Public - Appeler à l'avance,,public,CALL,,CAR_DEALER,,,,,,,Free,,,,,,,,,,false,,,,,,,
ELEC,Mossy Nissan - Oceanside,3535 College Blvd,,Oceanside,CA,92056,,760-720-9797,E,,Public - Call ahead,Dealership business hours,,,,,,2,1,,Non-Networked,,200-9,33.181953,-117.298334,2020-06-09,39916,2021-03-11 23:22:17 UTC,P,,,2011-03-15,,,,,CHADEMO J1772,US,,,,Public - Appeler à l'avance,,public,CALL,,CAR_DEALER,,,,,,,Free,,,,,,,,,,false,,,,,,,
ELEC,Stadium Nissan,1140 W Katella Ave,,Orange,CA,92867,,714-633-8430,E,,Public - Call ahead,Dealership business hours,,,,,,2,1,,Non-Networked,,200-9,33.80857,-117.864434,2020-06-09,39917,2021-03-11 23:22:17 UTC,P,,,2011-03-15,,,,,CHADEMO J1772,US,,,,Public - Appeler à l'avance,,public,CALL,,CAR_DEALER,,,,,,,Free,,,,,,,,,,false,,,,,,,
ELEC,Team Nissan,1801 Auto Center Dr,,Oxnard,CA,93036,,805-485-8787,E,,Public - Call ahead,Dealership business hours,,,,,,1,1,,Non-Networked,,GPS,34.22771,-119.150217,2022-02-10,39918,2022-02-10 19:42:29 UTC,P,,,2011-03-15,,,,,CHADEMO J1772,US,,,,Public - Appeler à l'avance,,public,CALL,,CAR_DEALER,,,,,,,Free,,,,,,,,,,false,,,,,,,
ELEC,Antelope Valley Nissan,451 Auto Center Dr,"5th St West and Auto Center Dr; access EVSE via the service drive, located adjacent to the front door",Palmdale,CA,93551,,,E,,Public - Call ahead,24 hours daily; primarily for customer use,,,,,,2,2,,Non-Networked,,GPS,34.591173,-118.138184,2022-03-07,39919,2023-02-14 15:54:11 UTC,P,,,2011-03-15,,,,,CHADEMO J1772,US,,,,Public - Appeler à l'avance,,public,CALL,,CAR_DEALER,,,,,,,Free,,,,,,,,,,false,,,,,,,
ELEC,North Bay Nissan,1250 Auto Center Dr,,Petaluma,CA,94952,,707-769-7700,E,,Public - Call ahead,Dealership business hours,,,,,,4,1,,Non-Networked,,200-9,38.267202,-122.665068,2022-02-10,39920,2022-02-10 19:42:29 UTC,P,,,2011-03-15,,,,,CHADEMO J1772 J1772COMBO,US,,,,Public - Appeler à l'avance,,public,CALL,,CAR_DEALER,,,,,,,Free,,,,,,,,,,false,,,,,,,
ELEC,Mossy Nissan - Poway,14100 Poway Rd,,Poway,CA,92064,,858-668-3600,E,,Public - Call ahead,Dealership business hours,,,,,,1,1,,Non-Networked,,200-9,32.956772,-117.025943,2020-06-09,39921,2023-02-15 22:45:41 UTC,P,,,2011-03-15,,,,,CHADEMO J1772,US,,,,Public - Appeler à l'avance,,public,CALL,,CAR_DEALER,,,,,,,Free,,,,,,,,,,false,,,,,,,
ELEC,Boardwalk Nissan,1 Bair Island Rd,,Redwood City,CA,94063,,650-364-0100,E,,Public - Call ahead,Dealership business hours,,,,,,3,1,,Non-Networked,,200-9,37.495963,-122.227322,2020-06-09,39923,2023-02-15 22:45:41 UTC,P,,,2011-03-15,,,,,CHADEMO J1772,US,,,,Public - Appeler à l'avance,,public,CALL,,CAR_DEALER,,,,,,,Free,,,,,,,,,,false,,,,,,,
ELEC,Hanlees Hilltop Nissan,3277 Auto Plaza,,Richmond,CA,94806,,510-222-4900,E,,Public - Call ahead,Dealership business hours,,,,,,1,1,,Non-Networked,,200-9,37.985253,-122.32124,2022-03-07,39925,2023-02-14 15:54:11 UTC,P,,,2011-03-15,,,,,CHADEMO J1772 J1772COMBO,US,,,,Public - Appeler à l'avance,,public,CALL,,CAR_DEALER,,,,,,,Free,,,,,,,,,,false,,,,,,,
ELEC,Riverside Nissan,8330 Indiana Ave,,Riverside,CA,92504,,,E,,Public - Call ahead,Dealership business hours,,,,,,2,1,,Non-Networked,,GPS,33.925469,-117.419673,2022-03-07,39927,2023-02-14 15:54:11 UTC,P,,,2011-03-15,,,,,CHADEMO J1772 J1772COMBO,US,,,,Public - Appeler à l'avance,,public,CALL,,CAR_DEALER,,,,,,,Free,,,,,,,,,,false,,,,,,,
ELEC,Future Nissan of Roseville,600 Automall Dr,,Roseville,CA,95661,,,E,,Public - Call ahead,Dealership business hours; 916-969-5700,,,,,,1,1,,Non-Networked,,GPS,38.752198,-121.256452,2022-02-10,39928,2022-02-10 19:42:29 UTC,P,,,2011-03-15,,,,,CHADEMO J1772 J1772COMBO,US,,,,Public - Appeler à l'avance,,public,CALL,,CAR_DEALER,,,,,,,Free,,,,,,,,,,false,,,,,,,
ELEC,Nissan of Sacramento,2820 Auburn Blvd,,Sacramento,CA,95821,,,E,,Public - Call ahead,Dealership business hours; 916-488-5400,,,,,,1,1,,Non-Networked,,GPS,38.631393,-121.396604,2022-02-10,39929,2022-02-10 19:42:29 UTC,P,,,2016-06-01,,,,,CHADEMO J1772 J1772COMBO,US,,,,Public - Appeler à l'avance,,public,CALL,,CAR_DEALER,,,,,,,Free,,,,,,,,,,false,,,,,,,
ELEC,MY Nissan,222 Auto Center Cir,,Salinas,CA,93907,,831-444-8888,E,,Public - Call ahead,Dealership business hours,,,,,,2,1,,Non-Networked,,GPS,36.720023,-121.662519,2022-02-10,39930,2022-02-10 19:42:29 UTC,P,,,2011-03-15,,,,,CHADEMO J1772,US,,,,Public - Appeler à l'avance,,public,CALL,,CAR_DEALER,,,,,,,Free,,,,,,,,,,false,,,,,,,
ELEC,Larry H Miller Nissan of San Bernardino,735 Showcase Dr S,,San Bernardino,CA,92408,,,E,,Public - Call ahead,Dealership business hours; contact 909-885-3883 for more information,,,,,,1,1,,Non-Networked,,GPS,34.074378,-117.298,2022-02-10,39931,2022-02-10 19:42:29 UTC,P,,,2011-03-15,,,,,CHADEMO J1772,US,,,,Public - Appeler à l'avance,,public,CALL,,CAR_DEALER,,,,,,,Free,,,,,,,,,,false,,,,,,,
ELEC,Mossy Nissan - Kearny Mesa,8118 Clairemont Mesa Blvd,,San Diego,CA,92111,,858-565-4411,E,,Public - Call ahead,Dealership business hours,,,,,,1,1,,Non-Networked,,200-9,32.833179,-117.147384,2020-06-09,39932,2023-02-15 22:45:41 UTC,P,,,2011-03-15,,,,,CHADEMO J1772,US,,,,Public - Appeler à l'avance,,public,CALL,,CAR_DEALER,,,,,,,Free,,,,,,,,,,false,,,,,,,
ELEC,Pacific Nissan,4433 Mission Bay Dr,,San Diego,CA,92109,,858-581-3200,E,,Public - Call ahead,Dealership business hours,,,,,,1,1,,Non-Networked,,200-9,32.802475,-117.215269,2020-06-09,39933,2023-02-15 22:45:41 UTC,P,,,2011-04-01,,,,,CHADEMO J1772,US,,,,Public - Appeler à l'avance,,public,CALL,,CAR_DEALER,,,,,,,Free,,,,,,,,,,false,,,,,,,
ELEC,Premier Nissan,1120 W Capitol Expy,,San Jose,CA,95136,,408-978-1234,E,,Public - Call ahead,Dealership business hours,,,,,,1,2,,Non-Networked,,GPS,37.275144,-121.877656,2020-06-09,39935,2023-02-15 22:45:41 UTC,P,,,2011-03-15,,,,,CHADEMO J1772 J1772COMBO,US,,,,Public - Appeler à l'avance,,public,CALL,,CAR_DEALER,,,,,,,Free,,,,,,,,,,false,,,,,,,
ELEC,Nissan of San Juan Capistrano,33633 Camino Capistrano,,San Juan Capistrano,CA,92675,,888-718-2419,E,,Public - Call ahead,Dealership business hours,,,,,,2,1,,Non-Networked,,200-9,33.47443,-117.676142,2022-02-10,39936,2022-02-10 19:42:29 UTC,P,,,2011-03-15,,,,,CHADEMO J1772,US,,,,Public - Appeler à l'avance,,public,CALL,,CAR_DEALER,,,,,,,Free,,,,,,,,,,false,,,,,,,
ELEC,San Leandro Nissan,1152 Marina Blvd,,San Leandro,CA,94577,,510-347-4000,E,,Public - Call ahead,Dealership business hours,,,,,,2,1,,Non-Networked,,GPS,37.712609,-122.162746,2022-02-10,39937,2022-02-10 19:42:29 UTC,P,,,2011-03-15,,,,,CHADEMO J1772 J1772COMBO,US,,,,Public - Appeler à l'avance,,public,CALL,,CAR_DEALER,,,,,,,Free,,,,,,,,,,false,,,,,,,
ELEC,Coast Nissan,12150 Los Osos Valley Rd,,San Luis Obispo,CA,93405,,805-543-4423,E,,Public - Call ahead,Dealership business hours,,,,,,4,1,,Non-Networked,,GPS,35.25062,-120.68455,2022-03-07,39938,2023-02-14 15:54:11 UTC,P,,,2011-03-15,,,,,CHADEMO J1772,US,,,,Public - Appeler à l'avance,,public,CALL,,CAR_DEALER,,,,,,,Free,,,,,,,,,,false,,,,,,,
ELEC,Stevens Creek Nissan,4855 Stevens Creek Blvd,Located on the southeast corner of building,Santa Clara,CA,95051,,408-983-5900,E,,Public - Call ahead,Dealership business hours,,,,,,1,2,,Non-Networked,,200-9,37.323569,-121.988027,2022-02-10,39939,2022-02-10 19:42:29 UTC,P,,,2011-03-15,,,,,CHADEMO J1772 J1772COMBO,US,,,,Public - Appeler à l'avance,,public,CALL,,CAR_DEALER,,,,,,,Free,,,,,,,,,,false,,,,,,,
ELEC,Jim Bone Nissan,1275 Santa Rosa Ave,,Santa Rosa,CA,95404,,707-545-7050,E,,Public - Call ahead,Dealership business hours,,,,,,4,1,,Non-Networked,,200-9,38.425537,-122.714089,2022-03-07,39943,2023-02-14 15:54:11 UTC,P,,,2011-03-15,,,,,CHADEMO J1772 J1772COMBO,US,,,,Public - Appeler à l'avance,,public,CALL,,CAR_DEALER,,,,,,,Free,,,,,,,,,,false,,,,,,,
ELEC,Cardinale Nissan,1661 Del Monte Blvd,,Seaside,CA,93955,,831-393-0600,E,,Public - Call ahead,Dealership business hours,,,,,,2,1,,Non-Networked,,GPS,36.611189,-121.849899,2022-02-10,39944,2022-02-10 19:42:29 UTC,P,,,2011-03-15,,,,,CHADEMO J1772,US,,,,Public - Appeler à l'avance,,public,CALL,,CAR_DEALER,,,,,,,Free,,,,,,,,,,false,,,,,,,
ELEC,Nissan of Van Nuys,5425 Van Nuys Blvd,,Sherman Oaks,CA,91401,,818-787-8400,E,,Public - Call ahead,Dealership business hours,,,,,,1,1,,Non-Networked,,200-9,34.168824,-118.449059,2022-02-10,39945,2022-02-10 19:42:29 UTC,P,,,2014-04-22,,,,,CHADEMO J1772 J1772COMBO,US,,,,Public - Appeler à l'avance,,public,CALL,,CAR_DEALER,,,,,,,Free,,,,,,,,,,false,,,,,,,
ELEC,First Nissan,2325 1st St,,Simi Valley,CA,93065,,805-526-9700,E,,Public - Call ahead,Dealership business hours,,,,,,1,1,,Non-Networked,,200-8,34.277324,-118.778957,2022-02-10,39947,2022-02-10 19:42:29 UTC,P,,,2011-03-15,,,,,CHADEMO J1772 J1772COMBO,US,,,,Public - Appeler à l'avance,,public,CALL,,CAR_DEALER,,,,,,,Free,,,,,,,,,,false,,,,,,,
ELEC,Nissan of Stockton,3077 E Hammer Ln,,Stockton,CA,95212,,209-956-6500,E,,Public - Call ahead,Dealership business hours,,,,,,2,1,,Non-Networked,,200-9,38.022022,-121.275339,2022-03-07,39948,2023-02-14 15:54:11 UTC,P,,,2011-03-15,,,,,CHADEMO J1772,US,,,,Public - Appeler à l'avance,,public,CALL,,CAR_DEALER,,,,,,,Free,,,,,,,,,,false,,,,,,,
ELEC,Temecula Nissan,41895 Motor Car Pkwy,,Temecula,CA,92591,,951-676-6601,E,,Public - Call ahead,Dealership business hours,,,,,,2,1,,Non-Networked,,200-9,33.516768,-117.155039,2022-02-10,39949,2022-02-10 19:42:29 UTC,P,,,2011-03-15,,,,,CHADEMO J1772,US,,,,Public - Appeler à l'avance,,public,CALL,,CAR_DEALER,,,,,,,Free,,,,,,,,,,false,,,,,,,
ELEC,Nissan of Tustin,30 Auto Center Dr,,Tustin,CA,92782,,714-669-8282,E,,Public - Call ahead,Dealership business hours,,,,,,1,1,,Non-Networked,,200-9,33.72484,-117.799302,2022-02-10,39952,2022-02-10 19:42:29 UTC,P,,,2011-03-15,,,,,CHADEMO J1772 J1772COMBO,US,,,,Public - Appeler à l'avance,,public,CALL,,CAR_DEALER,,,,,,,,,,,,,,,,,false,,,,,,,
ELEC,Nissan of Visalia,830 S Ben Maddox Way,,Visalia,CA,93292,,559-734-3333,E,,Public - Call ahead,Dealership business hours,,,,,,1,1,,Non-Networked,,200-9,36.32327,-119.27569,2022-03-07,39957,2023-02-14 15:54:11 UTC,P,,,2011-03-15,,,,,CHADEMO J1772 J1772COMBO,US,,,,Public - Appeler à l'avance,,public,CALL,,CAR_DEALER,,,,,,,Free,,,,,,,,,,false,,,,,,,
ELEC,West Covina Nissan,205 N Citrus St,,West Covina,CA,91791,,626-732-1000,E,,Public - Call ahead,Dealership business hours,,,,,,1,1,,Non-Networked,,200-9,34.074227,-117.890899,2022-02-10,39959,2022-02-10 19:42:29 UTC,P,,,2011-03-15,,,,,CHADEMO J1772,US,,,,Public - Appeler à l'avance,,public,CALL,,CAR_DEALER,,,,,,,Free,,,,,,,,,,false,,,,,,,
ELEC,Deland Nissan,2600 S Woodland Blvd,,Deland,FL,32720,,386-734-3003,E,,Public - Call ahead,Dealership business hours,,,,,,1,1,,Non-Networked,,200-9,28.983689,-81.300079,2022-03-07,39964,2023-02-14 15:54:11 UTC,P,,,2011-03-15,,,,,CHADEMO J1772,US,,,,Public - Appeler à l'avance,,public,CALL,,CAR_DEALER,,,,,,,Free,,,,,,,,,,false,,,,,,,
ELEC,Delray Nissan,2200 S Federal Hwy,,Delray Beach,FL,33483,,561-278-6216,E,,Public - Call ahead,Dealership business hours,,,,,,1,1,,Non-Networked,,200-9,26.435016,-80.072333,2022-03-07,39965,2023-02-14 15:54:11 UTC,P,,,2011-03-15,,,,,CHADEMO J1772,US,,,,Public - Appeler à l'avance,,public,CALL,,CAR_DEALER,,,,,,,Free,,,,,,,,,,false,,,,,,,
ELEC,Fort Lauderdale Nissan,1051 S Federal Hwy,,Fort Lauderdale,FL,33316,,954-527-3400,E,,Public - Call ahead,Dealership business hours,,,,,,1,1,,Non-Networked,,200-8,26.109825,-80.137099,2022-03-07,39966,2023-02-14 15:54:11 UTC,P,,,2011-03-15,,,,,CHADEMO J1772,US,,,,Public - Appeler à l'avance,,public,CALL,,CAR_DEALER,,,,,,,Free,,,,,,,,,,false,,,,,,,
ELEC,Fuccillo Nissan,7447 Blanding Blvd,,Jacksonville,FL,32244,,904-270-9954,E,,Public - Call ahead,Dealership business hours,,,,,,1,1,,Non-Networked,,200-9,30.212415,-81.736209,2020-06-09,39968,2023-02-15 22:45:41 UTC,P,,,2011-03-15,,,,,CHADEMO J1772,US,,,,Public - Appeler à l'avance,,public,CALL,,CAR_DEALER,,,,,,,Free,,,,,,,,,,false,,,,,,,
ELEC,Bill Seidle's Nissan,10500 NW 12th St,,Miami,FL,33172,,305-633-8000,E,,Public - Call ahead,Dealership business hours,,,,,,1,1,,Non-Networked,,200-9,25.783121,-80.366772,2022-03-07,39970,2023-02-14 15:54:11 UTC,P,,,2011-03-15,,,,,CHADEMO J1772,US,,,,Public - Appeler à l'avance,,public,CALL,,CAR_DEALER,,,,,,,Free,,,,,,,,,,false,,,,,,,
ELEC,Palmetto 57 Nissan,16725 NW 57th Ave,,Miami,FL,33055,,305-626-2600,E,,Public - Call ahead,Dealership business hours,,,,,,1,1,,Non-Networked,,200-9,25.9262,-80.292105,2020-06-09,39971,2023-02-15 22:45:41 UTC,P,,,2011-03-15,,,,,CHADEMO J1772,US,,,,Public - Appeler à l'avance,,public,CALL,,CAR_DEALER,,,,,,,Free,,,,,,,,,,false,,,,,,,
ELEC,AutoNation Nissan - Miami,3345 SW 8th St,,Miami,FL,33135,,305-707-0145,E,,Public - Call ahead,Dealership business hours,,,,,,1,1,,Non-Networked,,200-9,25.76506,-80.250516,2022-03-07,39972,2023-02-14 15:54:11 UTC,P,,,2011-03-15,,,,,CHADEMO J1772,US,,,,Public - Appeler à l'avance,,public,CALL,,CAR_DEALER,,,,,,,Free,,,,,,,,,,false,,,,,,,
ELEC,AutoNation Nissan - Pembroke Pines,8890 Pines Blvd,,Pembroke Pines,FL,33024,,954-949-0421,E,,Public - Call ahead,Dealership business hours,,,,,,1,1,,Non-Networked,,GPS,26.007358,-80.263072,2022-03-07,39974,2023-02-14 15:54:11 UTC,P,,,2011-03-15,,,,,CHADEMO J1772,US,,,,Public - Appeler à l'avance,,public,CALL,,CAR_DEALER,,,,,,,Free,,,,,,,,,,false,,,,,,,
ELEC,Alan Jay Nissan,1700 Flare Rd,,Sebring,FL,33870,,863-402-4280,E,,Public - Call ahead,Dealership business hours,,,,,,1,1,,Non-Networked,,GPS,27.485756,-81.481603,2022-03-07,39975,2023-02-14 15:54:11 UTC,P,,,2017-01-16,,,,,CHADEMO J1772,US,,,,Public - Appeler à l'avance,,public,CALL,,CAR_DEALER,,,,,,,Free,,,,,,,,,,false,,,,,,,
ELEC,Courtesy Nissan - Tampa,3800 W Hillsborough Ave,,Tampa,FL,33614,,813-870-3333,E,,Public - Call ahead,Dealership business hours,,,,,,1,1,,Non-Networked,,200-9,27.995139,-82.506186,2022-03-07,39978,2023-02-14 15:54:11 UTC,P,,,2011-03-15,,,,,CHADEMO J1772,US,,,,Public - Appeler à l'avance,,public,CALL,,CAR_DEALER,,,,,,,Free,,,,,,,,,,false,,,,,,,
ELEC,Hill Nissan,6401 Cypress Gardens Blvd,,Winter Haven,FL,33884,,863-299-2161,E,,Public - Call ahead,Dealership business hours,,,,,,1,1,,Non-Networked,,200-9,27.982961,-81.676059,2022-03-07,39982,2023-02-14 15:54:11 UTC,P,,,2011-03-15,,,,,CHADEMO J1772,US,,,,Public - Appeler à l'avance,,public,CALL,,CAR_DEALER,,,,,,,Free,,,,,,,,,,false,,,,,,,
ELEC,Sutherlin Nissan - Mall of Georgia,3520 Highway 20,,Buford,GA,30519,,678-714-1885,E,,Public - Call ahead,Dealership business hours,,,,,,2,1,,Non-Networked,,GPS,34.075281,-83.98366,2022-03-07,39983,2023-02-14 15:54:11 UTC,P,,,2011-03-15,,,,,CHADEMO J1772,US,,,,Public - Appeler à l'avance,,public,CALL,,CAR_DEALER,,,,,,,,,,,,,,,,,false,,,,,,,
ELEC,Nalley Nissan of Atlanta,2551 The Nalley Way,,Atlanta,GA,30360,,855-416-9828,E,,Public - Call ahead,"9am-8pm M-Sat, 12pm-5pm Sun",,,,,,1,2,,Non-Networked,,GPS,33.907866,-84.283186,2020-06-09,39985,2021-03-11 23:22:17 UTC,P,,,2011-03-15,,,,,CHADEMO J1772,US,,,,Public - Appeler à l'avance,,public,CALL,,CAR_DEALER,,,,,,,Free,,,,,,,,,,false,,,,,,,
ELEC,Gwinnett Place Nissan,2555 Pleasant Hill Rd,,Duluth,GA,30096,,770-476-7771,E,,Public - Call ahead,Dealership business hours,,,,,,1,1,,Non-Networked,,200-9,33.967935,-84.146036,2022-03-07,39986,2023-02-14 15:54:11 UTC,P,,,2011-03-15,,,,,CHADEMO J1772 J1772COMBO,US,,,,Public - Appeler à l'avance,,public,CALL,,CAR_DEALER,,,,,,,Free,,,,,,,,,,false,,,,,,,
ELEC,Stone Mountain Nissan,4275 Highway 78,,Lilburn,GA,30047,,678-252-3100,E,,Public - Call ahead,Dealership business hours,,,,,,1,1,,Non-Networked,,200-8,33.841932,-83.905677,2022-03-07,39988,2023-02-14 15:54:11 UTC,P,,,2011-03-15,,,,,CHADEMO J1772,US,,,,Public - Appeler à l'avance,,public,CALL,,CAR_DEALER,,,,,,,Free,,,,,,,,,,false,,,,,,,
ELEC,AutoNation Nissan - Thornton Road,811 Thornton Rd,,Lithia Springs,GA,30122,,770-674-6080,E,,Public - Call ahead,Dealership business hours,,,,,,1,1,,Non-Networked,,200-9,33.784015,-84.612737,2020-06-09,39989,2023-02-15 22:45:41 UTC,P,,,2011-03-15,,,,,CHADEMO J1772,US,,,,Public - Appeler à l'avance,,public,CALL,,CAR_DEALER,,,,,,,Free,,,,,,,,,,false,,,,,,,
ELEC,AutoNation Nissan - Marietta,925 Cobb Pkwy SE,,Marietta,GA,30060,,770-674-6081,E,,Public - Call ahead,Dealership business hours,,,,,,1,1,,Non-Networked,,200-9,33.92909,-84.50889,2022-03-07,39990,2023-02-14 15:54:11 UTC,P,,,2011-03-15,,,,,CHADEMO J1772 J1772COMBO,US,,,,Public - Appeler à l'avance,,public,CALL,,CAR_DEALER,,,,,,,Free,,,,,,,,,,false,,,,,,,
ELEC,Regal Nissan,1090 Holcomb Bridge Rd,,Roswell,GA,30076,,770-998-8686,E,,Public - Call ahead,Dealership business hours,,,,,,2,1,,Non-Networked,,200-8,34.022437,-84.327529,2022-03-07,39992,2023-02-14 15:54:11 UTC,P,,,2011-03-15,,,,,CHADEMO J1772 J1772COMBO,US,,,,Public - Appeler à l'avance,,public,CALL,,CAR_DEALER,,,,,,,Free,,,,,,,,,,false,,,,,,,
ELEC,Nissan South Union City,4080 Jonesboro Rd,,Union City,GA,30291,,,E,,Public - Call ahead,Dealership business hours; contact 770-964-4900 for more information,,,,,,1,1,,Non-Networked,,200-8,33.565412,-84.521117,2022-03-07,39993,2023-02-14 15:54:11 UTC,P,,,2011-03-15,,,,,CHADEMO J1772,US,,,,Public - Appeler à l'avance,,public,CALL,,CAR_DEALER,,,,,,,,,,,,,,,,,false,,,,,,,
ELEC,King Windward Nissan,45-568 Kamehameha Hwy,,Kaneohe,HI,96744,,808-235-6433,E,,Public - Call ahead,Dealership business hours; open to Nissan Leaf's only,,,,,,1,1,,Non-Networked,,200-9,21.399116,-157.799326,2022-02-10,39997,2022-04-28 20:01:31 UTC,P,,,2011-03-15,,,,,CHADEMO J1772,US,,,,Public - Appeler à l'avance,,public,CALL,,CAR_DEALER,,,,,,,Free,,,,,,,,,,true,,,,,,,
ELEC,Bel Air Nissan,1506 Bel Air Rd,,Bel Air,MD,21014,,410-879-1133,E,,Public - Call ahead,Dealership business hours,,,,,,2,1,,Non-Networked,,GPS,39.505659,-76.382317,2022-03-07,40018,2023-02-14 15:54:11 UTC,P,,,2011-03-15,,,,,CHADEMO J1772 J1772COMBO,US,,,,Public - Appeler à l'avance,,public,CALL,,CAR_DEALER,,,,,,,Free,,,,,,,,,,false,,,,,,,
ELEC,Younger Nissan,7418 Grove Rd,,Frederick,MD,21704,,301-662-0111,E,,Public - Call ahead,Dealership business hours,,,,,,1,1,,Non-Networked,,200-9,39.391175,-77.407835,2022-03-07,40025,2023-02-14 15:54:11 UTC,P,,,2018-06-26,,,,,CHADEMO J1772 J1772COMBO,US,,,,Public - Appeler à l'avance,,public,CALL,,CAR_DEALER,,,,,,,Free,,,,,,,,,,false,,,,,,,
ELEC,Passport Nissan - Marlow Heights,5000 Auth Way,,Suitland,MD,20746,,,E,,Public - Call ahead,Dealership business hours; contact 301-423-8400 for more information,,,,,,1,1,,Non-Networked,,200-9,38.82681,-76.923233,2022-03-07,40029,2023-02-14 15:54:11 UTC,P,,,2011-03-15,,,,,CHADEMO J1772 J1772COMBO,US,,,,Public - Appeler à l'avance,,public,CALL,,CAR_DEALER,,,,,,,Free,,,,,,,,,,false,,,,,,,
ELEC,Darcars Nissan,15911 Indianola Dr,,Rockville,MD,20855,,301-309-2200,E,,Public - Call ahead,Dealership business hours,,,,,,1,1,,Non-Networked,,200-9,39.113757,-77.161016,2022-03-07,40030,2023-02-14 15:54:11 UTC,P,,,2011-03-15,,,,,CHADEMO J1772,US,,,,Public - Appeler à l'avance,,public,CALL,,CAR_DEALER,,,,,,,Free,,,,,,,,,,false,,,,,,,
ELEC,Herb Gordon Nissan,3131 Automobile Blvd,,Silver Spring,MD,20904,,301-890-8200,E,,Public - Call ahead,Dealership business hours,,,,,,1,1,,Non-Networked,,200-9,39.077447,-76.947933,2020-06-09,40033,2023-02-15 22:45:41 UTC,P,,,2011-03-15,,,,,CHADEMO J1772,US,,,,Public - Appeler à l'avance,,public,CALL,,CAR_DEALER,,,,,,,Free,,,,,,,,,,false,,,,,,,
ELEC,Modern Nissan - Concord,967 Concord Pkwy S,,Concord,NC,28027,,704-788-2110,E,,Public - Call ahead,Dealership business hours,,,,,,1,1,,Non-Networked,,200-9,35.392063,-80.622777,2022-03-07,40066,2023-02-14 15:54:11 UTC,P,,,2011-03-15,,,,,CHADEMO J1772 J1772COMBO,US,,,,Public - Appeler à l'avance,,public,CALL,,CAR_DEALER,,,,,,,Free,,,,,,,,,,false,,,,,,,
ELEC,Fred Anderson Nissan,4559 Raeford Rd,,Fayetteville,NC,28304,,910-758-2338,E,,Public - Call ahead,Dealership business hours,,,,,,1,1,,Non-Networked,,200-9,35.042419,-78.956747,2020-06-09,40067,2023-02-15 22:45:41 UTC,P,,,2011-03-15,,,,,CHADEMO J1772,US,,,,Public - Appeler à l'avance,,public,CALL,,CAR_DEALER,,,,,,,Free,,,,,,,,,,false,,,,,,,
ELEC,Hyman Brothers Nissan,11841 Midlothian Turnpike,,Midlothian,VA,23113,,804-378-3000,E,,Public - Call ahead,Dealership business hours,,,,,,2,1,,Non-Networked,,GPS,37.50418,-77.61949,2022-03-07,40382,2023-02-14 15:54:11 UTC,P,,,2011-05-15,,,,,CHADEMO J1772,US,,,,Public - Appeler à l'avance,,public,CALL,,CAR_DEALER,,,,,,,Free,,,,,,,,,,false,,,,,,,
ELEC,Jim Ellis Chevrolet,5900 Peachtree Industrial Blvd,"South of I-285 on west side of Peachtree Industrial Blvd, located near the sales department",Atlanta,GA,30341,,,E,,Public - Call ahead,9am-8pm M-Sat; for Volt use only,,,,,,6,1,,Non-Networked,,GPS,33.90999,-84.2914,2022-08-10,40790,2023-02-14 15:54:11 UTC,P,,,2011-07-27,,,,,J1772 J1772COMBO,US,,,,Public - Appeler à l'avance,,public,CALL,,CAR_DEALER,,,,,,,Free,,,,,,,,,SOLAR,true,,,,,,,
ELEC,Anchor Nissan,1041 Eddie Dowling Hwy,Route 146,North Smithfield,RI,02896,,401-767-5000,E,,Public - Call ahead,Dealership business hours,,,,,,1,1,,Non-Networked,,200-8,41.96108,-71.494611,2022-03-07,42016,2023-02-14 15:54:11 UTC,P,,,2011-11-01,,,,,CHADEMO J1772 J1772COMBO,US,,,,Public - Appeler à l'avance,,public,CALL,,CAR_DEALER,,,,,,,Free,,,,,,,,,,false,,,,,,,
ELEC,Nissan North America,1 Nissan Way,,Franklin,TN,37067,,615-725-1000,E,,Public,24 hours daily,,,,,,4,3,,Non-Networked,,GPS,35.940203,-86.813764,2020-06-09,43762,2021-03-11 23:22:17 UTC,P,,,2016-01-01,,,,,CHADEMO J1772,US,,,,Public,,public,,,OFFICE_BLDG,,,,,,,,,,,,,,,,,false,,,,,,,
ELEC,Carriage Nissan,2400 Browns Bridge Rd,,Gainesville,GA,30504,,770-532-6335,E,,Public - Call ahead,Dealership business hours,,,,,,1,1,,Non-Networked,,200-8,34.275207,-83.85946,2022-03-07,43839,2023-02-14 15:54:11 UTC,P,,,2011-03-01,,,,,CHADEMO J1772,US,,,,Public - Appeler à l'avance,,public,CALL,,CAR_DEALER,,,,,,,Free,,,,,,,,,,false,,,,,,,
ELEC,Town Center Nissan,2310 Barrett Lakes Blvd N,,Kennesaw,GA,30144,,770-423-9691,E,,Public - Call ahead,Dealership business hours,,,,,,2,1,,Non-Networked,,200-9,34.010005,-84.577162,2022-03-07,43840,2023-02-14 15:54:11 UTC,P,,,2011-03-01,,,,,CHADEMO J1772 J1772COMBO,US,,,,Public - Appeler à l'avance,,public,CALL,,CAR_DEALER,,,,,,,Free,,,,,,,,,,false,,,,,,,
ELEC,Carolina Nissan,1329 Huffman Mill Rd,,Burlington,NC,27215,,336-584-0201,E,,Public - Call ahead,Dealership business hours,,,,,,2,1,,Non-Networked,,200-9,36.063557,-79.503697,2022-03-07,43876,2023-02-14 15:54:11 UTC,P,,,2011-04-01,,,,,CHADEMO J1772,US,,,,Public - Appeler à l'avance,,public,CALL,,CAR_DEALER,,,,,,,Free,,,,,,,,,,false,,,,,,,
ELEC,Country Club Imports,55 Oneida St,,Oneonta,NY,13820,,607-432-2800,E,,Public - Call ahead,Dealership business hours; see service desk for access,,,,,,2,2,,Non-Networked,,GPS,42.451285,-75.100333,2020-06-09,44176,2023-02-15 22:45:41 UTC,P,,,2011-11-30,,,,,CHADEMO J1772 J1772COMBO,US,,,,Public - Appeler à l'avance,,public,CALL,,CAR_DEALER,,,,,,,Free,,,,,,,,,,false,,,,,,,
ELEC,Nissan 112,730 Route 112,Route 112,Patchogue,NY,11772,,,E,,Public - Call ahead,Dealership business hours; contact 631-289-9100 for more information,,,,,,1,1,,Non-Networked,,GPS,40.792986,-73.00827,2020-06-09,44180,2023-02-15 22:45:41 UTC,P,,,2011-11-30,,,,,CHADEMO J1772,US,,,,Public - Appeler à l'avance,,public,CALL,,CAR_DEALER,,,,,,,Free,,,,,,,,,,false,,,,,,,
ELEC,Riverhead Auto Mall,1800 Old Country Rd,,Riverhead,NY,11901,,631-369-0600,E,,Public - Call ahead,Dealership business hours,,,,,,2,2,,Non-Networked,,GPS,40.924758,-72.704752,2020-12-03,44186,2023-02-15 22:45:41 UTC,P,,,2011-11-30,,,,,CHADEMO J1772 J1772COMBO,US,,,,Public - Appeler à l'avance,,public,CALL,,CAR_DEALER,,,,,,,Free,,,,,,,,,,false,,,,,,,
ELEC,Nissan of Smithtown,535 Middle Country Rd,,St. James,NY,11780,,,E,,Public - Call ahead,Dealership business hours; contact 631-361-9696 for more information,,,,,,1,1,,Non-Networked,,200-9,40.859886,-73.162067,2022-03-07,44190,2023-02-14 15:54:11 UTC,P,,,2011-11-30,,,,,CHADEMO J1772,US,,,,Public - Appeler à l'avance,,public,CALL,,CAR_DEALER,,,,,,,,,,,,,,,,,false,,,,,,,
ELEC,Legend Nissan,268 Jericho Turnpike,,Syosset,NY,11791,,516-496-8181,E,,Public,Dealership business hours,,,,,,1,1,,Non-Networked,,200-9,40.809865,-73.507761,2022-03-07,44203,2023-02-14 15:54:11 UTC,P,,,2011-11-30,,,,,CHADEMO J1772 J1772COMBO,US,,,,Public,,public,,,CAR_DEALER,,,,,,,Free,,,,,,,,,,false,,,,,,,
ELEC,Nissan of Westbury,939 Old Country Rd,,Westbury,NY,11590,,516-338-5600,E,,Public - Call ahead,Dealership business hours,,,,,,1,1,,Non-Networked,,200-8,40.753954,-73.561974,2020-06-09,44212,2023-02-15 22:45:41 UTC,P,,,2011-11-30,,,,,CHADEMO J1772,US,,,,Public - Appeler à l'avance,,public,CALL,,CAR_DEALER,,,,,,,Free,,,,,,,,,,false,,,,,,,
ELEC,Nissan of Yorktown Heights,3495 Old Crompond Rd,,Yorktown Heights,NY,10598,,914-737-3500,E,,Public - Call ahead,Dealership business hours,,,,,,2,1,,Non-Networked,,200-8,41.289317,-73.835547,2022-02-10,44218,2022-02-10 19:42:29 UTC,P,,,2011-11-30,,,,,CHADEMO J1772 J1772COMBO,US,,,,Public - Appeler à l'avance,,public,CALL,,CAR_DEALER,,,,,,,Free,,,,,,,,,,false,,,,,,,
ELEC,Lee Nissan - Auburn,793 Center St,,Auburn,ME,04210,,207-783-2291,E,,Public - Call ahead,Dealership business hours,,,,,,2,1,,Non-Networked,,200-9,44.129326,-70.224225,2022-03-07,44280,2023-02-14 15:54:11 UTC,P,,,2011-11-30,,,,,CHADEMO J1772 J1772COMBO,US,,,,Public - Appeler à l'avance,,public,CALL,,CAR_DEALER,,,,,,,,,,,,,,,,,false,,,,,,,
ELEC,Ann Arbor Nissan,3975 Jackson Rd,,Ann Arbor,MI,48103,,734-663-7770,E,,Public - Call ahead,Dealership business hours,,,,,,1,2,,Non-Networked,,GPS,42.284242,-83.80855,2022-03-07,44287,2023-02-14 15:54:11 UTC,P,,,2011-11-30,,,,,CHADEMO J1772 J1772COMBO,US,,,,Public - Appeler à l'avance,,public,CALL,,CAR_DEALER,,,,,,,Free,,,,,,,,,,false,,,,,,,
ELEC,Gezon Nissan,3985 Plainfield Ave NE,,Grand Rapids,MI,49525,,,E,,Public - Call ahead,Dealership business hours; contact 616-361-7361 for more information,,,,,,1,1,,Non-Networked,,GPS,43.035997,-85.618662,2022-03-07,44289,2023-02-14 15:54:11 UTC,P,,,2011-11-30,,,,,CHADEMO J1772 J1772COMBO,US,,,,Public - Appeler à l'avance,,public,CALL,,CAR_DEALER,,,,,,,,,,,,,,,,,false,,,,,,,
ELEC,Suburban Nissan - Troy,1800 Maplelawn Dr,,Troy,MI,48084,,248-649-2300,E,,Public - Call ahead,Dealership business hours,,,,,,1,1,,Non-Networked,,200-9,42.553452,-83.175063,2022-03-07,44299,2023-02-14 15:54:11 UTC,P,,,2011-11-30,,,,,J1772 J1772COMBO,US,,,,Public - Appeler à l'avance,,public,CALL,,CAR_DEALER,,,,,,,Free,,,,,,,,,,false,,,,,,,
ELEC,Concord Nissan,175 Manchester St,,Concord,NH,03301,,603-224-9968,E,,Public - Call ahead,Dealership business hours,,,,,,1,1,,Non-Networked,,200-9,43.187837,-71.497717,2022-02-10,44303,2022-02-10 19:42:29 UTC,P,,,2011-11-30,,,,,CHADEMO J1772 J1772COMBO,US,,,,Public - Appeler à l'avance,,public,CALL,,CAR_DEALER,,,,,,,Free,,,,,,,,,,false,,,,,,,
ELEC,Patriot Nissan,93 S Broadway,,Salem,NH,03079,,,E,,Public - Call ahead,Dealership business hours; contact 603-894-4300 for more information,,,,,,1,1,,Non-Networked,,200-9,42.772666,-71.222512,2022-03-07,44309,2023-02-14 15:54:11 UTC,P,,,2011-11-30,,,,,CHADEMO J1772 J1772COMBO,US,,,,Public - Appeler à l'avance,,public,CALL,,CAR_DEALER,,,,,,,Free,,,,,,,,,,false,,,,,,,
ELEC,Nissan of Keene,544 Monadnock Hwy,,Swanzey,NH,03446,,603-357-7945,E,,Public - Call ahead,Dealership business hours,,,,,,1,1,,Non-Networked,,200-9,42.878599,-72.233177,2022-03-07,44313,2023-02-14 15:54:11 UTC,P,,,2011-11-30,,,,,CHADEMO J1772 J1772COMBO,US,,,,Public - Appeler à l'avance,,public,CALL,,CAR_DEALER,,,,,,,Free,,,,,,,,,,false,,,,,,,
ELEC,Nissan - Garden City,316 N Franklin St,,Hempstead,NY,11550,,,E,,Public - Call ahead,Dealership business hours; contact 516-483-4400 for more information,,,,,,1,1,,Non-Networked,,GPS,40.71693,-73.630152,2022-02-10,44346,2022-02-10 19:42:29 UTC,P,,,2011-11-30,,,,,CHADEMO J1772,US,,,,Public - Appeler à l'avance,,public,CALL,,CAR_DEALER,,,,,,,Free,,,,,,,,,,false,,,,,,,
ELEC,Simmons Rockwell Nissan,224 Colonial Dr,,Horseheads,NY,14845,,,E,,Public - Call ahead,Dealership business hours; contact 607-398-6666 for more information,,,,,,1,1,,Non-Networked,,GPS,42.16246,-76.867435,2022-02-10,44348,2022-02-10 19:42:29 UTC,P,,,2011-11-30,,,,,CHADEMO J1772 J1772COMBO,US,,,,Public - Appeler à l'avance,,public,CALL,,CAR_DEALER,,,,,,,Free,,,,,,,,,,false,,,,,,,
ELEC,Nissan - Huntington,850 E Jericho Turnpike,,Huntington Station,NY,11746,,,E,,Public - Call ahead,Dealership business hours; contact 631-439-7000 for more information,,,,,,1,1,,Non-Networked,,GPS,40.834455,-73.379693,2020-06-09,44350,2023-02-15 22:45:41 UTC,P,,,2011-11-30,,,,,CHADEMO J1772,US,,,,Public - Appeler à l'avance,,public,CALL,,CAR_DEALER,,,,,,,Free,,,,,,,,,,false,,,,,,,
ELEC,Kingston Nissan,140 Route 28,,Kingston,NY,12401,,845-338-3100,E,,Public - Call ahead,Dealership business hours,,,,,,1,1,,Non-Networked,,GPS,41.948965,-74.032033,2022-03-07,44352,2023-02-14 15:54:11 UTC,P,,,2011-11-30,,,,,CHADEMO J1772,US,,,,Public - Appeler à l'avance,,public,CALL,,CAR_DEALER,,,,,,,Free,,,,,,,,,,false,,,,,,,
ELEC,Nissan of New Rochelle,2533 Palmer Ave,,New Rochelle,NY,10801,,914-576-7600,E,,Public - Call ahead,Dealership business hours,,,,,,1,1,,Non-Networked,,200-8,40.919104,-73.776645,2022-03-07,44360,2023-02-14 15:54:11 UTC,P,,,2011-11-30,,,,,CHADEMO J1772 J1772COMBO,US,,,,Public - Appeler à l'avance,,public,CALL,,CAR_DEALER,,,,,,,Free,,,,,,,,,,false,,,,,,,
ELEC,Bommarito Nissan - Ballwin,14747 Manchester Rd,,Ballwin,MO,63011,,636-394-0330,E,,Public - Call ahead,Dealership business hours,,,,,,1,1,,Non-Networked,,200-9,38.593551,-90.532572,2022-03-07,44362,2023-02-14 15:54:11 UTC,P,,,2011-11-30,,,,,CHADEMO J1772 J1772COMBO,US,,,,Public - Appeler à l'avance,,public,CALL,,CAR_DEALER,,,,,,,Free,,,,,,,,,,false,,,,,,,
ELEC,Suntrup Nissan-Volkswagen,6000 S Lindbergh Blvd,,St. Louis,MO,63123,,314-892-8200,E,,Public - Call ahead,Dealership business hours,,,,,,1,1,,Non-Networked,,200-9,38.5207,-90.343967,2020-06-09,44372,2023-02-15 22:45:41 UTC,P,,,2011-11-30,,,,,CHADEMO J1772,US,,,,Public - Appeler à l'avance,,public,CALL,,CAR_DEALER,,,,,,,Free,,,,,,,,,,false,,,,,,,
ELEC,Saint Charles Nissan,5625 Veterans Memorial Pkwy,,St. Peters,MO,63376,,636-441-4481,E,,Public - Call ahead,Dealership business hours,,,,,,1,1,,Non-Networked,,GPS,38.797781,-90.598753,2022-03-07,44374,2023-02-14 15:54:11 UTC,P,,,2011-11-30,,,,,CHADEMO J1772,US,,,,Public - Appeler à l'avance,,public,CALL,,CAR_DEALER,,,,,,,Free,,,,,,,,,,false,,,,,,,
ELEC,Harte Nissan,165 W Service Rd,,Hartford,CT,06120,,860-549-2800,E,,Public - Call ahead,Dealership business hours,,,,,,1,1,,Non-Networked,,GPS,41.791382,-72.656681,2022-03-07,44435,2023-02-14 15:54:11 UTC,P,,,2011-09-09,,,,,CHADEMO J1772,US,,,,Public - Appeler à l'avance,,public,CALL,,CAR_DEALER,,,,,,,,,,,,,,,,,false,,,,,,,
ELEC,Middletown Nissan,1153 Newfield St,,Middletown,CT,06457,,860-632-6550,E,,Public - Call ahead,Dealership business hours,,,,,,3,1,,Non-Networked,,GPS,41.59054,-72.676141,2020-06-09,44441,2023-02-15 22:45:41 UTC,P,,,2011-11-30,,,,,CHADEMO J1772,US,,,,Public - Appeler à l'avance,,public,CALL,,CAR_DEALER,,,,,,,,,,,,,,,,,false,,,,,,,
ELEC,Executive Nissan,900 Universal Dr N,,North Haven,CT,06473,,203-239-5371,E,,Public - Call ahead,Dealership business hours,,,,,,1,1,,Non-Networked,,GPS,41.360892,-72.870997,2022-03-07,44447,2023-02-14 15:54:11 UTC,P,,,2011-11-30,,,,,CHADEMO J1772,US,,,,Public - Appeler à l'avance,,public,CALL,,CAR_DEALER,,,,,,,,,,,,,,,,,false,,,,,,,
ELEC,Grossman Nissan,295 Middlesex Turnpike,,Old Saybrook,CT,06475,,860-388-5785,E,,Public - Call ahead,Dealership business hours,,,,,,1,1,,Non-Networked,,GPS,41.309276,-72.383105,2020-06-09,44450,2023-02-15 22:45:41 UTC,P,,,2011-11-30,,,,,CHADEMO J1772,US,,,,Public - Appeler à l'avance,,public,CALL,,CAR_DEALER,,,,,,,,,,,,,,,,,false,,,,,,,
ELEC,Barberino Nissan,505 N Colony St,,Wallingford,CT,06492,,203-265-1611,E,,Public - Call ahead,Dealership business hours,,,,,,1,1,,Non-Networked,,200-9,41.467376,-72.817586,2022-03-07,44457,2023-02-14 15:54:11 UTC,P,,,2011-11-30,,,,,CHADEMO J1772 J1772COMBO,US,,,,Public - Appeler à l'avance,,public,CALL,,CAR_DEALER,,,,,,,,,,,,,,,,,false,,,,,,,
ELEC,George Harte Nissan,426 Derby Ave,,West Haven,CT,06516,,203-389-5701,E,,Public - Call ahead,Dealership business hours,,,,,,2,1,,Non-Networked,,GPS,41.307602,-72.968506,2022-03-07,44459,2023-02-14 15:54:11 UTC,P,,,2011-11-30,,,,,CHADEMO J1772,US,,,,Public - Appeler à l'avance,,public,CALL,,CAR_DEALER,,,,,,,,,,,,,,,,,false,,,,,,,
ELEC,Bruce Bennett Nissan,978 Danbury Rd,,Wilton,CT,06897,,,E,,Public - Call ahead,Dealership business hours,,,,,,1,1,,Non-Networked,,GPS,41.258992,-73.435546,2022-03-07,44464,2023-02-14 15:54:11 UTC,P,,,2011-11-30,,,,,CHADEMO J1772,US,,,,Public - Appeler à l'avance,,public,CALL,,CAR_DEALER,,,,,,,,,,,,,,,,,false,,,,,,,
ELEC,Weston Nissan,3650 Weston Rd,,Davie,FL,33331,,954-888-6800,E,,Public - Call ahead,Dealership business hours,,,,,,2,1,,Non-Networked,,200-9,26.073774,-80.361864,2020-06-09,44465,2021-03-11 23:22:17 UTC,P,,,2011-11-30,,,,,CHADEMO J1772,US,,,,Public - Appeler à l'avance,,public,CALL,,CAR_DEALER,,,,,,,Free,,,,,,,,,,false,,,,,,,
ELEC,Premier Nissan,5394 University Town Center Dr,,Morgantown,WV,26501,,,E,,Public - Call ahead,Dealership business hours; contact 304-292-0171 for more information,,,,,,1,1,,Non-Networked,,200-8,39.646525,-80.002049,2022-01-10,45657,2022-02-10 19:42:29 UTC,P,,,2012-01-31,,,,,CHADEMO J1772,US,,,,Public - Appeler à l'avance,,public,CALL,,CAR_DEALER,,,,,,,Free,,,,,,,,,,false,,,,,,,
ELEC,Lynnes Nissan City,318 Bloomfield Ave,,Bloomfield,NJ,07003,,973-743-2111,E,,Public - Call ahead,Dealership business hours,,,,,,2,1,,Non-Networked,,GPS,40.784797,-74.193494,2022-03-07,45664,2023-02-14 15:54:11 UTC,P,,,2012-01-31,,,,,CHADEMO J1772,US,,,,Public - Appeler à l'avance,,public,CALL,,CAR_DEALER,,,,,,,Free,,,,,,,,,,false,,,,,,,
ELEC,Route 22 Nissan,56 Route 22 E,,Hillside,NJ,07205,,908-964-8700,E,,Public - Call ahead,Dealership business hours,,,,,,2,1,,Non-Networked,,GPS,40.696469,-74.219681,2022-03-07,45682,2023-02-14 15:54:11 UTC,P,,,2012-01-31,,,,,CHADEMO J1772 J1772COMBO,US,,,,Public - Appeler à l'avance,,public,CALL,,CAR_DEALER,,,,,,,Free,,,,,,,,,,false,,,,,,,
ELEC,Acme Nissan,2050 US Highway 130,,South Brunswick,NJ,08852,,732-821-9300,E,,Public - Call ahead,Dealership business hours,,,,,,1,1,,Non-Networked,,GPS,40.40938,-74.506017,2022-03-07,45688,2023-02-14 15:54:11 UTC,P,,,2012-01-31,,,,,CHADEMO J1772 J1772COMBO,US,,,,Public - Appeler à l'avance,,public,CALL,,CAR_DEALER,,,,,,,Free,,,,,,,,,,false,,,,,,,
ELEC,North Plainfield Nissan,545 Route 22 W,,North Plainfield,NJ,07060,,,E,,Public - Call ahead,Dealership business hours; contact 908-755-6400 for more information,,,,,,1,1,,Non-Networked,,GPS,40.630184,-74.433373,2022-03-07,45692,2023-02-14 15:54:11 UTC,P,,,2012-01-31,,,,,CHADEMO J1772,US,,,,Public - Appeler à l'avance,,public,CALL,,CAR_DEALER,,,,,,,Free,,,,,,,,,,false,,,,,,,
ELEC,Nissan 46,440 Route 46,,Totowa,NJ,07512,,973-256-1200,E,,Public - Call ahead,Dealership business hours,,,,,,1,1,,Non-Networked,,200-8,40.894133,-74.232511,2022-03-07,45698,2023-02-14 15:54:11 UTC,P,,,2012-01-31,,,,,CHADEMO J1772 J1772COMBO,US,,,,Public - Appeler à l'avance,,public,CALL,,CAR_DEALER,,,,,,,Free,,,,,,,,,,false,,,,,,,
ELEC,Ramsey Nissan,401 Route 17 S,,Upper Saddle River,NJ,07458,,,E,,Public - Call ahead,Dealership business hours; contact 201-825-4040 for more information,,,,,,2,1,,Non-Networked,,GPS,41.053216,-74.120288,2022-03-07,45700,2023-02-14 15:54:11 UTC,P,,,2012-01-31,,,,,CHADEMO J1772 J1772COMBO,US,,,,Public - Appeler à l'avance,,public,CALL,,CAR_DEALER,,,,,,,Free,,,,,,,,,,false,,,,,,,
ELEC,Boardman Nissan,7809 Market St,,Boardman,OH,44512,,,E,,Public - Call ahead,Dealership business hours; contact 330-726-5555 for more information,,,,,,1,1,,Non-Networked,,GPS,41.010633,-80.662082,2022-03-07,45714,2023-02-14 15:54:11 UTC,P,,,2012-01-31,,,,,CHADEMO J1772,US,,,,Public - Appeler à l'avance,,public,CALL,,CAR_DEALER,,,,,,,Free,,,,,,,,,,false,,,,,,,
ELEC,Germain Nissan,4300 Morse Rd,,Columbus,OH,43230,,614-418-4500,E,,Public - Call ahead,Dealership business hours,,,,,,1,1,,Non-Networked,,200-9,40.057068,-82.885518,2022-03-07,45724,2023-02-14 15:54:11 UTC,P,,,2012-01-31,,,,,CHADEMO J1772,US,,,,Public - Appeler à l'avance,,public,CALL,,CAR_DEALER,,,,,,,Free,,,,,,,,,,false,,,,,,,
ELEC,Jeff Wyler Nissan - Fairfield,5829 Dixie Hwy,,Fairfield,OH,45014,,513-682-2500,E,,Public - Call ahead,Dealership business hours,,,,,,2,1,,Non-Networked,,200-9,39.329217,-84.517152,2020-06-09,45734,2023-02-15 22:45:41 UTC,P,,,2012-01-31,,,,,CHADEMO J1772,US,,,,Public - Appeler à l'avance,,public,CALL,,CAR_DEALER,,,,,,,Free,,,,,,,,,,false,,,,,,,
ELEC,Buckeye Nissan,3820 Parkway Ln,,Hilliard,OH,43026,,,E,,Public - Call ahead,Dealership business hours; contact 614-771-2345 for more information,,,,,,1,1,,Non-Networked,,GPS,40.031602,-83.125728,2022-03-07,45738,2023-02-14 15:54:11 UTC,P,,,2012-01-31,,,,,CHADEMO J1772,US,,,,Public - Appeler à l'avance,,public,CALL,,CAR_DEALER,,,,,,,Free,,,,,,,,,,false,,,,,,,
ELEC,Ken Ganley Nissan,5180 Montville Dr,,Medina,OH,44256,,330-721-0500,E,,Public - Call ahead,Dealership business hours,,,,,,2,1,,Non-Networked,,200-9,41.134139,-81.793566,2022-03-07,45748,2023-02-14 15:54:11 UTC,P,,,2012-01-31,,,,,CHADEMO J1772,US,,,,Public - Appeler à l'avance,,public,CALL,,CAR_DEALER,,,,,,,Free,,,,,,,,,,false,,,,,,,
ELEC,Kelly Nissan of Woburn,95 Cedar St,,Woburn,MA,01801,,781-835-3500,E,,Public - Call ahead,Dealership business hours,,,,,,1,1,,Non-Networked,,200-9,42.499069,-71.119302,2022-03-07,45817,2023-02-14 15:54:11 UTC,P,,,2012-04-25,,,,,CHADEMO J1772 J1772COMBO,US,,,,Public - Appeler à l'avance,,public,CALL,,CAR_DEALER,,,,,,,,,,,,,,,,,false,,,,,,,
ELEC,Bertera Nissan,569 Oxford St S,,Auburn,MA,01501,,508-832-9611,E,,Public - Call ahead,Dealership business hours,,,,,,2,1,,Non-Networked,,200-9,42.182748,-71.850396,2022-03-07,45874,2023-02-14 15:54:11 UTC,P,,,2012-01-31,,,,,CHADEMO J1772 J1772COMBO,US,,,,Public - Appeler à l'avance,,public,CALL,,CAR_DEALER,,,,,,,,,,,,,,,,,false,,,,,,,
ELEC,Battles Nissan,60 MacArthur Blvd,,Bourne,MA,02532,,508-759-4400,E,,Public - Call ahead,Dealership business hours,,,,,,1,1,,Non-Networked,,200-9,41.738842,-70.586069,2022-03-07,45878,2023-02-14 15:54:11 UTC,P,,,2012-01-31,,,,,CHADEMO J1772 J1772COMBO,US,,,,Public - Appeler à l'avance,,public,CALL,,CAR_DEALER,,,,,,,,,,,,,,,,,false,,,,,,,
ELEC,Nissan 24,1016 Belmont St,Located near the service entrance,Brockton,MA,02301,,508-588-9520,E,,Public - Call ahead,Dealership business hours,,,,,,1,1,,Non-Networked,,GPS,42.063356,-71.058186,2022-03-07,45880,2023-02-14 15:54:11 UTC,P,,,2012-01-31,,,,,CHADEMO J1772 J1772COMBO,US,,,,Public - Appeler à l'avance,,public,CALL,,CAR_DEALER,,,,,,,,,,,,,,,,,false,,,,,,,
ELEC,Curry Nissan Chicopee,765 Memorial Dr,,Chicopee,MA,01020,,413-474-6800,E,,Public - Call ahead,Dealership business hours,,,,,,1,1,,Non-Networked,,GPS,42.17889,-72.575914,2022-03-07,45882,2023-02-14 15:54:11 UTC,P,,,2012-01-31,,,,,CHADEMO J1772,US,,,,Public - Appeler à l'avance,,public,CALL,,CAR_DEALER,,,,,,,,,,,,,,,,,false,,,,,,,
ELEC,Country Nissan,40 Russell St,,Hadley,MA,01035,,413-774-3121,E,,Public - Call ahead,Dealership business hours,,,,,,1,1,,Non-Networked,,200-9,42.340378,-72.606213,2022-03-07,45886,2023-02-14 15:54:11 UTC,P,,,2012-01-31,,,,,CHADEMO J1772 J1772COMBO,US,,,,Public - Appeler à l'avance,,public,CALL,,CAR_DEALER,,,,,,,,,,,,,,,,,false,,,,,,,
ELEC,Sullivan Brothers Nissan,1 Cranberry Rd,,Kingston,MA,02364,,781-585-7500,E,,Public - Call ahead,Dealership business hours,,,,,,2,1,,Non-Networked,,200-9,41.976052,-70.7127,2022-03-07,45890,2023-02-14 15:54:11 UTC,P,,,2012-04-25,,,,,CHADEMO J1772 J1772COMBO,US,,,,Public - Appeler à l'avance,,public,CALL,,CAR_DEALER,,,,,,,,,,,,,,,,,false,,,,,,,
ELEC,Ron Bouchard's Nissan,490 Old Union Turnpike,,Lancaster,MA,01523,,978-345-1800,E,,Public - Call ahead,Dealership business hours,,,,,,1,1,,Non-Networked,,200-8,42.520224,-71.70099,2022-03-07,45892,2023-02-14 15:54:11 UTC,P,,,2012-01-31,,,,,CHADEMO J1772 J1772COMBO,US,,,,Public - Appeler à l'avance,,public,CALL,,CAR_DEALER,,,,,,,,,,,,,,,,,false,,,,,,,
ELEC,Kelly Nissan - Lynnfield,275 Broadway,,Lynnfield,MA,01940,,781-598-1234,E,,Public - Call ahead,Dealership business hours,,,,,,1,1,,Non-Networked,,200-9,42.509982,-71.008978,2022-03-07,45894,2023-02-14 15:54:11 UTC,P,,,2012-01-31,,,,,CHADEMO J1772,US,,,,Public - Appeler à l'avance,,public,CALL,,CAR_DEALER,,,,,,,,,,,,,,,,,false,,,,,,,
ELEC,Marlborough Nissan,740 Boston Post Rd,,Marlborough,MA,01752,,508-481-3232,E,,Public - Call ahead,Dealership business hours,,,,,,1,1,,Non-Networked,,200-9,42.351115,-71.500717,2022-03-07,45896,2023-02-14 15:54:11 UTC,P,,,2012-01-31,,,,,CHADEMO J1772 J1772COMBO,US,,,,Public - Appeler à l'avance,,public,CALL,,CAR_DEALER,,,,,,,,,,,,,,,,,false,,,,,,,
ELEC,Colonial Nissan - Medford,104 Mystic Ave,,Medford,MA,02155,,781-395-5300,E,,Public - Call ahead,Dealership business hours,,,,,,1,1,,Non-Networked,,200-9,42.412492,-71.106619,2023-02-13,45898,2023-02-15 22:45:41 UTC,P,,,2012-01-31,,,,,CHADEMO J1772 J1772COMBO,US,,,,Public - Appeler à l'avance,,public,CALL,,CAR_DEALER,,,,,,,,,,,,,,,,,true,,,,,,,
ELEC,Nissan Village of North Attleboro,685 S Washington St,,North Attleboro,MA,02761,,508-695-3515,E,,Public - Call ahead,Dealership business hours,,,,,,1,1,,Non-Networked,,200-9,41.960366,-71.342187,2020-06-09,45902,2023-02-15 22:45:41 UTC,P,,,2012-01-31,,,,,CHADEMO J1772,US,,,,Public - Appeler à l'avance,,public,CALL,,CAR_DEALER,,,,,,,,,,,,,,,,,false,,,,,,,
ELEC,Coastal Nissan,109 Accord Park Dr,,Norwell,MA,02061,,781-610-1000,E,,Public - Call ahead,Dealership business hours,,,,,,2,1,,Non-Networked,,200-9,42.165417,-70.887748,2022-03-07,45904,2023-02-14 15:54:11 UTC,P,,,2012-01-31,,,,,CHADEMO J1772,US,,,,Public - Appeler à l'avance,,public,CALL,,CAR_DEALER,,,,,,,Free,,,,,,,,,,false,,,,,,,
ELEC,Boch Nissan,525 Boston Providence Hwy,,Norwood,MA,02062,,781-326-1500,E,,Public - Call ahead,Dealership business hours,,,,,,1,1,,Non-Networked,,200-9,42.192051,-71.18462,2022-03-07,45906,2023-02-14 15:54:11 UTC,P,,,2012-01-31,,,,,CHADEMO J1772 J1772COMBO,US,,,,Public - Appeler à l'avance,,public,CALL,,CAR_DEALER,,,,,,,,,,,,,,,,,false,,,,,,,
ELEC,Quirk Nissan,600 Southern Artery,,Quincy,MA,02169,,617-472-6700,E,,Public - Call ahead,Dealership business hours,,,,,,1,1,,Non-Networked,,200-9,42.253475,-70.991361,2020-06-09,45910,2023-02-15 22:45:41 UTC,P,,,2012-01-31,,,,,CHADEMO J1772,US,,,,Public - Appeler à l'avance,,public,CALL,,CAR_DEALER,,,,,,,,,,,,,,,,,false,,,,,,,
ELEC,Mastria Nissan,1305 New State Hwy,,Raynham,MA,02767,,,E,,Public - Call ahead,Dealership business hours; contact 508-824-8614 for more information,,,,,,1,1,,Non-Networked,,GPS,41.904046,-71.017203,2022-03-07,45912,2023-02-14 15:54:11 UTC,P,,,2012-01-31,,,,,CHADEMO J1772 J1772COMBO,US,,,,Public - Appeler à l'avance,,public,CALL,,CAR_DEALER,,,,,,,,,,,,,,,,,false,,,,,,,
ELEC,Michael Jordan Nissan,3930 Chapel Hill Blvd,,Durham,NC,27707,,919-489-3800,E,,Public - Call ahead,Dealership business hours,,,,,,2,2,,Non-Networked,,GPS,35.97051750603883,-78.95684758650816,2022-03-07,46407,2023-02-14 15:54:11 UTC,P,,,2011-08-01,,,,,CHADEMO J1772 J1772COMBO,US,,,,Public - Appeler à l'avance,,public,CALL,,CAR_DEALER,,,,,,,Free,,,,,,,,,,false,,,,,,,
ELEC,Vaden Nissan,10421 Abercorn St,,Savannah,GA,31419,,912-920-5480,E,,Public - Call ahead,Dealership business hours,,,,,,3,1,,Non-Networked,,200-9,31.986772,-81.13254,2020-06-09,46483,2023-02-15 22:45:41 UTC,P,,,2012-01-31,,,,,CHADEMO J1772,US,,,,Public - Appeler à l'avance,,public,CALL,,CAR_DEALER,,,,,,,Free,,,,,,,,,,false,,,,,,,
ELEC,Tynan's Nissan,780 S Havana St,,Aurora,CO,80012,,303-341-7330,E,,Public - Call ahead,Dealership business hours,,,,,,2,1,,Non-Networked,,GPS,39.702351,-104.865298,2022-03-07,46520,2023-02-14 15:54:11 UTC,P,,,2012-01-31,,,,,CHADEMO J1772 J1772COMBO,US,,,,Public - Appeler à l'avance,,public,CALL,,CAR_DEALER,,,,,,,Free,,,,,,,,,,false,,,,,,,
ELEC,Boulder Nissan,2285 28th St,,Boulder,CO,80301,,303-443-8110,E,,Public - Call ahead,24 hours daily,,,,,,3,1,,Non-Networked,,GPS,40.025019,-105.258915,2022-03-07,46522,2023-02-14 15:54:11 UTC,P,,,2012-01-31,,,,,CHADEMO J1772 J1772COMBO,US,,,,Public - Appeler à l'avance,,public,CALL,,CAR_DEALER,,,,,,,Free,,,,,,,,,,false,,,,,,,
ELEC,Larry H Miller Nissan - Arapahoe,10030 E Arapahoe Rd,,Centennial,CO,80112,,303-790-7333  855-900-7584,E,,Public - Call ahead,Dealership business hours,,,,,,2,1,,Non-Networked,,200-9,39.594525,-104.872435,2022-03-07,46524,2023-02-14 15:54:11 UTC,P,,,2012-01-31,,,,,CHADEMO J1772 J1772COMBO,US,,,,Public - Appeler à l'avance,,public,CALL,,CAR_DEALER,,,,,,,Free,,,,,,,,,,false,,,,,,,
ELEC,South Colorado Springs Nissan,1333 S Academy Blvd,,Colorado Springs,CO,80916,,719-550-3030,E,,Public - Call ahead,Dealership business hours,,,,,,1,1,,Non-Networked,,GPS,38.81233,-104.756795,2022-03-07,46526,2023-02-14 15:54:11 UTC,P,,,2012-01-31,,,,,CHADEMO J1772 J1772COMBO,US,,,,Public - Appeler à l'avance,,public,CALL,,CAR_DEALER,,,,,,,Free,,,,,,,,,,false,,,,,,,
ELEC,Woodmen Nissan,6840 Vincent Dr,,Colorado Springs,CO,80918,,719-234-1000,E,,Public - Call ahead,Dealership business hours,,,,,,1,1,,Non-Networked,,GPS,38.931011,-104.811075,2020-06-09,46528,2023-02-15 22:45:41 UTC,P,,,2012-01-31,,,,,CHADEMO J1772 J1772COMBO,US,,,,Public - Appeler à l'avance,,public,CALL,,CAR_DEALER,,,,,,,Free,,,,,,,,,,false,,,,,,,
ELEC,Greeley Nissan,2625 35th Ave,,Greeley,CO,80634,,970-353-5333  855-900-7584,E,,Public - Call ahead,Dealership business hours,,,,,,1,1,,Non-Networked,,200-9,40.39443,-104.736034,2022-03-07,46537,2023-02-14 15:54:11 UTC,P,,,2012-01-31,,,,,CHADEMO J1772 J1772COMBO,US,,,,Public - Appeler à l'avance,,public,CALL,,CAR_DEALER,,,,,,,Free,,,,,,,,,,false,,,,,,,
ELEC,Valley Nissan,1005 Ken Pratt Blvd,,Longmont,CO,80501,,303-776-0443,E,,Public - Call ahead,Dealership business hours,,,,,,1,1,,Non-Networked,,GPS,40.151989,-105.108644,2022-03-07,46543,2023-02-14 15:54:11 UTC,P,,,2012-01-31,,,,,CHADEMO J1772 J1772COMBO,US,,,,Public - Appeler à l'avance,,public,CALL,,CAR_DEALER,,,,,,,Free,,,,,,,,,,false,,,,,,,
ELEC,Dave Solon Nissan,2525 W US Highway 50,,Pueblo,CO,81008,,719-545-4145,E,,Public - Call ahead,Dealership business hours,,,,,,1,1,,Non-Networked,,GPS,38.312144,-104.640891,2022-03-07,46545,2023-02-14 15:54:11 UTC,P,,,2012-01-31,,,,,CHADEMO J1772 J1772COMBO,US,,,,Public - Appeler à l'avance,,public,CALL,,CAR_DEALER,,,,,,,Free,,,,,,,,,,false,,,,,,,
ELEC,Crowley Nissan,1451 Farmington Ave,,Bristol,CT,06010,,860-944-7766,E,,Public - Call ahead,Dealership business hours,,,,,,2,1,,Non-Networked,,200-8,41.699374,-72.894672,2022-03-07,46547,2023-02-14 15:54:11 UTC,P,,,2011-11-22,,,,,CHADEMO J1772,US,,,,Public - Appeler à l'avance,,public,CALL,,CAR_DEALER,,,,,,,Free,,,,,,,,,,false,,,,,,,
ELEC,Sheridan Nissan,114 S Dupont Hwy,,New Castle,DE,19720,,302-326-6100,E,,Public - Call ahead,Dealership business hours,,,,,,3,1,,Non-Networked,,200-9,39.663533,-75.605014,2022-03-07,46556,2023-02-14 15:54:11 UTC,P,,,2012-01-31,,,,,CHADEMO J1772 J1772COMBO,US,,,,Public - Appeler à l'avance,,public,CALL,,CAR_DEALER,,,,,,,Free,,,,,,,,,,false,,,,,,,
ELEC,Porter Nissan,300 E Cleveland Ave,,Newark,DE,19711,,302-368-6300,E,,Public - Call ahead,Dealership business hours,,,,,,1,1,,Non-Networked,,GPS,39.687222,-75.740488,2022-03-07,46558,2023-02-14 15:54:11 UTC,P,,,2012-01-31,,,,,CHADEMO J1772,US,,,,Public - Appeler à l'avance,,public,CALL,,CAR_DEALER,,,,,,,Free,,,,,,,,,,false,,,,,,,
ELEC,Harbor Nissan,4336 Tamiami Trail,,Port Charlotte,FL,33980,,941-629-1171,E,,Public - Call ahead,Dealership business hours,,,,,,1,1,,Non-Networked,,GPS,26.966836,-82.076851,2022-03-07,46560,2023-02-14 15:54:11 UTC,P,,,2012-01-31,,,,,CHADEMO J1772,US,,,,Public - Appeler à l'avance,,public,CALL,,CAR_DEALER,,,,,,,Free,,,,,,,,,,false,,,,,,,
ELEC,Daytona Nissan,950 N Tomoka Farms Rd,,Daytona Beach,FL,32124,,386-274-6800,E,,Public - Call ahead,Dealership business hours,,,,,,1,1,,Non-Networked,,200-9,29.215495,-81.10534,2022-03-07,46568,2023-02-14 15:54:11 UTC,P,,,2012-01-31,,,,,CHADEMO J1772,US,,,,Public - Appeler à l'avance,,public,CALL,,CAR_DEALER,,,,,,,Free,,,,,,,,,,false,,,,,,,
ELEC,Sutherlin Nissan,13985 S Tamiami Trail,,Fort Myers,FL,33912,,239-415-8600,E,,Public - Call ahead,Dealership business hours,,,,,,2,1,,Non-Networked,,200-9,26.539388,-81.870692,2022-03-07,46571,2023-02-14 15:54:11 UTC,P,,,2012-01-31,,,,,CHADEMO J1772 J1772COMBO,US,,,,Public - Appeler à l'avance,,public,CALL,,CAR_DEALER,,,,,,,Free,,,,,,,,,,false,,,,,,,
ELEC,Coggin Nissan,10600 Atlantic Blvd,,Jacksonville,FL,32225,,,E,,Public - Call ahead,Dealership business hours; contact 904-642-7900 for more information,,,,,,1,1,,Non-Networked,,GPS,30.324014,-81.524719,2022-03-07,46577,2023-02-14 15:54:11 UTC,P,,,2012-01-31,,,,,CHADEMO J1772 J1772COMBO,US,,,,Public - Appeler à l'avance,,public,CALL,,CAR_DEALER,,,,,,,Free,,,,,,,,,,false,,,,,,,
ELEC,Coggin Nissan at the Avenues,10859 Philips Hwy,,Jacksonville,FL,32256,,904-880-3000,E,,Public - Call ahead,Dealership business hours,,,,,,1,1,,Non-Networked,,200-9,30.172215,-81.544583,2022-03-07,46579,2023-02-14 15:54:11 UTC,P,,,2012-01-31,,,,,CHADEMO J1772 J1772COMBO,US,,,,Public - Appeler à l'avance,,public,CALL,,CAR_DEALER,,,,,,,Free,,,,,,,,,,false,,,,,,,
ELEC,Jenkins Nissan,4401 State Rd 33 N,,Lakeland,FL,33805,,863-686-2800,E,,Public - Call ahead,Dealership business hours,,,,,,1,1,,Non-Networked,,200-9,28.09809,-81.949333,2022-03-07,46582,2023-02-14 15:54:11 UTC,P,,,2012-01-31,,,,,CHADEMO J1772,US,,,,Public - Appeler à l'avance,,public,CALL,,CAR_DEALER,,,,,,,Free,,,,,,,,,,false,,,,,,,
ELEC,Jenkins Nissan,10234 US Highway 441,,Leesburg,FL,34788,,352-343-5111,E,,Public - Call ahead,Dealership business hours,,,,,,1,1,,Non-Networked,,200-9,28.822813,-81.787457,2020-06-09,46584,2023-02-15 22:45:41 UTC,P,,,2012-01-31,,,,,CHADEMO J1772,US,,,,Public - Appeler à l'avance,,public,CALL,,CAR_DEALER,,,,,,,Free,,,,,,,,,,false,,,,,,,
ELEC,Bill Ray Nissan,2724 N Highway 17-92,,Longwood,FL,32750,,407-831-1318,E,,Public - Call ahead,Dealership business hours,,,,,,1,2,,Non-Networked,,GPS,28.724709,-81.316556,2022-03-07,46586,2023-02-14 15:54:11 UTC,P,,,2012-01-31,,,,,CHADEMO J1772 J1772COMBO,US,,,,Public - Appeler à l'avance,,public,CALL,,CAR_DEALER,,,,,,,Free,,,,,,,,,,false,,,,,,,
ELEC,Pearson Nissan of Ocala,2060 SW College Rd,,Ocala,FL,34471,,352-622-4111,E,,Public - Call ahead,Dealership business hours,,,,,,1,1,,Non-Networked,,GPS,29.171608,-82.161506,2022-03-07,46597,2023-02-14 15:54:11 UTC,P,,,2012-01-31,,,,,CHADEMO J1772,US,,,,Public - Appeler à l'avance,,public,CALL,,CAR_DEALER,,,,,,,,,,,,,,,,,false,,,,,,,
ELEC,Reed Motors,3776 W Colonial Dr,,Orlando,FL,32808,,407-297-7333,E,,Public - Call ahead,Dealership business hours,,,,,,1,1,,Non-Networked,,200-9,28.551681,-81.424557,2020-06-09,46601,2023-02-15 22:45:41 UTC,P,,,2012-01-31,,,,,CHADEMO J1772,US,,,,Public - Appeler à l'avance,,public,CALL,,CAR_DEALER,,,,,,,Free,,,,,,,,,,false,,,,,,,
ELEC,Sutherlin Nissan - Orlando,8125 E Colonial Dr,,Orlando,FL,32807,,407-657-9500,E,,Public - Call ahead,Dealership business hours,,,,,,1,1,,Non-Networked,,200-8,28.5684,-81.27715,2022-03-07,46604,2023-02-14 15:54:11 UTC,P,,,2012-01-31,,,,,CHADEMO J1772,US,,,,Public - Appeler à l'avance,,public,CALL,,CAR_DEALER,,,,,,,,,,,,,,,,,false,,,,,,,
ELEC,Universal Nissan,12785 S Orange Blossom Trail,,Orlando,FL,32837,,407-926-7000,E,,Public - Call ahead,Dealership business hours,,,,,,1,1,,Non-Networked,,200-9,28.38053,-81.403658,2022-03-07,46606,2023-02-14 15:54:11 UTC,P,,,2012-01-31,,,,,CHADEMO J1772,US,,,,Public - Appeler à l'avance,,public,CALL,,CAR_DEALER,,,,,,,Free,,,,,,,,,,false,,,,,,,
ELEC,Beck Nissan,252 N Highway 17,,Palatka,FL,32177,,386-328-2775,E,,Public - Call ahead,Dealership business hours,,,,,,1,1,,Non-Networked,,200-8,29.663189,-81.656096,2022-03-07,46608,2023-02-14 15:54:11 UTC,P,,,2012-01-31,,,,,CHADEMO J1772,US,,,,Public - Appeler à l'avance,,public,CALL,,CAR_DEALER,,,,,,,Free,,,,,,,,,,false,,,,,,,
ELEC,West Palm Beach Nissan,3870 Blue Heron Blvd,,Riviera Beach,FL,33404,,561-848-0688,E,,Public - Call ahead,Dealership business hours,,,,,,1,1,,Non-Networked,,GPS,26.782347,-80.09792,2020-06-09,46619,2023-02-15 22:45:41 UTC,P,,,2012-01-31,,,,,CHADEMO J1772,US,,,,Public - Appeler à l'avance,,public,CALL,,CAR_DEALER,,,,,,,Free,,,,,,,,,,false,,,,,,,
ELEC,Nissan of Saint Augustine,2755 US 1 S,,St. Augustine,FL,32086,,904-794-9990,E,,Public - Call ahead,Dealership business hours,,,,,,2,1,,Non-Networked,,200-9,29.844721,-81.323289,2020-06-09,46623,2023-02-15 22:45:41 UTC,P,,,2012-01-31,,,,,CHADEMO J1772,US,,,,Public - Appeler à l'avance,,public,CALL,,CAR_DEALER,,,,,,,Free,,,,,,,,,,false,,,,,,,
ELEC,Kraft Nissan,3277 Mahan Dr,,Tallahassee,FL,32308,,850-576-6171,E,,Public - Call ahead,Dealership business hours,,,,,,1,1,,Non-Networked,,200-8,30.462438,-84.221215,2022-03-07,46632,2023-02-14 15:54:11 UTC,P,,,2012-01-31,,,,,CHADEMO J1772 J1772COMBO,US,,,,Public - Appeler à l'avance,,public,CALL,,CAR_DEALER,,,,,,,Free,,,,,,,,,,false,,,,,,,
ELEC,Pat Fischer Nissan,1128 S Hopkins Ave,,Titusville,FL,32780,,321-268-2000,E,,Public - Call ahead,Dealership business hours,,,,,,1,1,,Non-Networked,,200-9,28.602972,-80.808957,2020-06-09,46634,2023-02-15 22:45:41 UTC,P,,,2012-01-31,,,,,CHADEMO J1772,US,,,,Public - Appeler à l'avance,,public,CALL,,CAR_DEALER,,,,,,,Free,,,,,,,,,,false,,,,,,,
ELEC,Nissan of Athens,4735 Atlanta Hwy,,Athens,GA,30606,,706-549-6600,E,,Public - Call ahead,Dealership business hours,,,,,,1,1,,Non-Networked,,200-8,33.940287,-83.49648,2022-03-07,46645,2023-02-14 15:54:11 UTC,P,,,2012-01-31,,,,,CHADEMO J1772,US,,,,Public - Appeler à l'avance,,public,CALL,,CAR_DEALER,,,,,,,Free,,,,,,,,,,false,,,,,,,
ELEC,Scott Evans Nissan,725 Bankhead Hwy,,Carrollton,GA,30117,,770-832-8222,E,,Public - Call ahead,Dealership business hours,,,,,,1,1,,Non-Networked,,200-9,33.587958,-85.053239,2022-03-07,46647,2023-02-14 15:54:11 UTC,P,,,2012-01-31,,,,,CHADEMO J1772,US,,,,Public - Appeler à l'avance,,public,CALL,,CAR_DEALER,,,,,,,Free,,,,,,,,,,false,,,,,,,
ELEC,Nissan Headquarters - Columbus,1725 Whittlesey Rd,,Columbus,GA,31904,,,E,,Public - Call ahead,Dealership business hours,,,,,,1,1,,Non-Networked,,GPS,32.539843,-84.965676,2020-07-13,46649,2023-02-15 22:45:41 UTC,P,,,2012-01-31,,,,,CHADEMO J1772,US,,,,Public - Appeler à l'avance,,public,CALL,,CAR_DEALER,,,,,,,Free,,,,,,,,,,false,,,,,,,
ELEC,Childre Nissan,126 Roberson Mill Rd,,Milledgeville,GA,31061,,478-452-5535,E,,Public - Call ahead,Dealership business hours,,,,,,1,1,,Non-Networked,,200-9,33.106139,-83.257757,2022-03-07,46662,2023-02-14 15:54:11 UTC,P,,,2012-01-31,,,,,CHADEMO J1772,US,,,,Public - Appeler à l'avance,,public,CALL,,CAR_DEALER,,,,,,,Free,,,,,,,,,,false,,,,,,,
ELEC,University Nissan - Florence,248 Cox Creek Pkwy,,Florence,AL,35630,,256-740-5100,E,,Public - Call ahead,Dealership business hours,,,,,,1,1,,Non-Networked,,200-9,34.83473,-87.628871,2022-03-07,46685,2023-02-14 15:54:11 UTC,P,,,2012-01-31,,,,,CHADEMO J1772,US,,,,Public - Appeler à l'avance,,public,CALL,,CAR_DEALER,,,,,,,Free,,,,,,,,,,false,,,,,,,
ELEC,Nissan of Gadsden,1701 Rainbow Dr,,Gadsden,AL,35901,,256-549-7500,E,,Public - Call ahead,Dealership business hours,,,,,,1,1,,Non-Networked,,200-9,33.981374,-86.007245,2023-04-06,46688,2023-04-06 17:17:01 UTC,P,,,2012-01-31,,,,,CHADEMO J1772 J1772COMBO,US,,,,Public - Appeler à l'avance,,public,CALL,,CAR_DEALER,,,,,,,Free,,,,,,,,,,false,,,,,,,
ELEC,Dublin Nissan,6450 Dublin Ct,,Dublin,CA,94568,,925-452-8000,E,,Public - Call ahead,Dealership business hours,,,,,,4,1,,Non-Networked,,GPS,37.702828,-121.911087,2022-02-10,46721,2022-02-10 19:42:29 UTC,P,,,2012-01-31,,,,,CHADEMO J1772,US,,,,Public - Appeler à l'avance,,public,CALL,,CAR_DEALER,,,,,,,Free,,,,,,,,,,false,,,,,,,
ELEC,Momentum Nissan,2545 Auto Mall Pkwy,,Fairfield,CA,94533,,707-402-3200,E,,Public - Call ahead,Dealership business hours,,,,,,2,1,,Non-Networked,,200-9,38.244614,-122.079181,2020-06-09,46724,2023-02-15 22:45:41 UTC,P,,,2012-01-31,,,,,CHADEMO J1772 J1772COMBO,US,,,,Public - Appeler à l'avance,,public,CALL,,CAR_DEALER,,,,,,,Free,,,,,,,,,,false,,,,,,,
ELEC,Empire Nissan,1377 Kettering Loop,,Ontario,CA,91761,,909-390-9977,E,,Public - Call ahead,Dealership business hours,,,,,,1,1,,Non-Networked,,200-9,34.049006,-117.547161,2022-02-10,46743,2022-02-10 19:42:29 UTC,P,,,2012-01-31,,,,,CHADEMO J1772 J1772COMBO,US,,,,Public - Appeler à l'avance,,public,CALL,,CAR_DEALER,,,,,,,Free,,,,,,,,,,false,,,,,,,
ELEC,Dennis Dillon Nissan,8727 Fairview Ave,,Boise,ID,83704,,208-388-4404,E,,Public,24 hours daily,,,,,,1,1,,Non-Networked,,200-9,43.619031,-116.29091,2022-03-07,46791,2023-02-14 15:54:11 UTC,P,,,2012-01-31,,,,,CHADEMO J1772,US,,,,Public,,public,,,CAR_DEALER,,,,,,,Free,,,,,,,,,,false,,,,,,,
ELEC,Ron Sayer Nissan,1175 N Woodruff Ave,,Idaho Falls,ID,83401,,208-523-0603,E,,Public - Call ahead,Dealership business hours,,,,,,1,1,,Non-Networked,,GPS,43.506418,-112.000182,2022-03-07,46793,2023-02-14 15:54:11 UTC,P,,,2012-01-31,,,,,CHADEMO J1772,US,,,,Public - Appeler à l'avance,,public,CALL,,CAR_DEALER,,,,,,,,,,,,,,,,,false,,,,,,,
ELEC,Arlington Nissan,1100 W Dundee Rd,,Arlington Heights,IL,60004,,847-590-6100,E,,Public - Call ahead,Dealership business hours,,,,,,1,1,,Non-Networked,,200-9,42.139843,-87.996655,2022-03-07,46797,2023-02-14 15:54:11 UTC,P,,,2012-01-31,,,,,CHADEMO J1772,US,,,,Public - Appeler à l'avance,,public,CALL,,CAR_DEALER,,,,,,,Free,,,,,,,,,,false,,,,,,,
ELEC,The Autobarn Nissan,1012 Chicago Ave,,Evanston,IL,60202,,847-475-8200,E,,Public - Call ahead,Dealership business hours,,,,,,1,1,,Non-Networked,,200-9,42.03616,-87.680149,2022-03-07,46821,2023-02-14 15:54:11 UTC,P,,,2012-01-31,,,,,CHADEMO J1772,US,,,,Public - Appeler à l'avance,,public,CALL,,CAR_DEALER,,,,,,,Free,,,,,,,,,,false,,,,,,,
ELEC,Gerald Nissan - North Aurora,213 Hansen Blvd,,North Aurora,IL,60542,,630-907-0800,E,,Public - Call ahead,Dealership business hours,,,,,,1,1,,Non-Networked,,200-9,41.798401,-88.37177,2022-03-07,46832,2023-02-14 15:54:11 UTC,P,,,2012-01-31,,,,,CHADEMO J1772,US,,,,Public - Appeler à l'avance,,public,CALL,,CAR_DEALER,,,,,,,Free,,,,,,,,,,false,,,,,,,
ELEC,Gastonia Nissan,2755 E Franklin Blvd,,Gastonia,NC,28054,,704-867-0000,E,,Public - Call ahead,Dealership business hours,,,,,,1,2,,Non-Networked,,GPS,35.261109,-81.139708,2022-03-07,46998,2023-02-14 15:54:11 UTC,P,,,2012-01-31,,,,,CHADEMO J1772 J1772COMBO,US,,,,Public - Appeler à l'avance,,public,CALL,,CAR_DEALER,,,,,,,Free,,,,,,,,,,false,,,,,,,
ELEC,Crown Nissan,3900 W Wendover Ave,,Greensboro,NC,27407,,,E,,Public - Call ahead,Dealership business hours; contact 336-292-9191 for more information,,,,,,1,1,,Non-Networked,,GPS,36.060613,-79.876505,2022-03-07,47003,2023-02-14 15:54:11 UTC,P,,,2012-01-31,,,,,CHADEMO J1772,US,,,,Public - Appeler à l'avance,,public,CALL,,CAR_DEALER,,,,,,,Free,,,,,,,,,,false,,,,,,,
ELEC,Greenville Nissan,991 Greenville Blvd SW,,Greenville,NC,27834,,252-756-1738,E,,Public - Call ahead,Dealership business hours,,,,,,1,1,,Non-Networked,,200-9,35.571982,-77.408327,2020-06-09,47005,2023-02-15 22:45:41 UTC,P,,,2012-01-31,,,,,CHADEMO J1772,US,,,,Public - Appeler à l'avance,,public,CALL,,CAR_DEALER,,,,,,,Free,,,,,,,,,,false,,,,,,,
ELEC,Modern Nissan - Hickory,840 US Highway 70 SE,,Hickory,NC,28602,,828-324-5040,E,,Public - Call ahead,Dealership business hours,,,,,,2,1,,Non-Networked,,GPS,35.710136,-81.321182,2022-03-07,47010,2023-02-14 15:54:11 UTC,P,,,2012-01-31,,,,,CHADEMO J1772 J1772COMBO,US,,,,Public - Appeler à l'avance,,public,CALL,,CAR_DEALER,,,,,,,Free,,,,,,,,,,false,,,,,,,
ELEC,Ben Mynatt Nissan,629 Jake Alexander Blvd S,,Salisbury,NC,28147,,704-633-7270,E,,Public - Call ahead,Dealership business hours,,,,,,1,1,,Non-Networked,,200-9,35.644549,-80.488272,2022-03-07,47032,2023-02-14 15:54:11 UTC,P,,,2012-01-31,,,,,CHADEMO J1772 J1772COMBO,US,,,,Public - Appeler à l'avance,,public,CALL,,CAR_DEALER,,,,,,,Free,,,,,,,,,,false,,,,,,,
ELEC,Classic Nissan - Sanford,3305 NC Highway 87 S,,Sanford,NC,27332,,919-775-2351,E,,Public - Call ahead,Dealership business hours,,,,,,1,1,,Non-Networked,,200-9,35.44411,-79.1282,2022-03-07,47034,2023-02-14 15:54:11 UTC,P,,,2012-01-31,,,,,CHADEMO J1772 J1772COMBO,US,,,,Public - Appeler à l'avance,,public,CALL,,CAR_DEALER,,,,,,,Free,,,,,,,,,,false,,,,,,,
ELEC,Crossroads Nissan - Wake Forest,11120 Capital Blvd,,Wake Forest,NC,27587,,919-435-5700,E,,Public - Call ahead,Dealership business hours,,,,,,1,1,,Non-Networked,,200-8,35.948971,-78.539171,2022-03-07,47040,2023-02-14 15:54:11 UTC,P,,,2012-01-31,,,,,CHADEMO J1772 J1772COMBO,US,,,,Public - Appeler à l'avance,,public,CALL,,CAR_DEALER,,,,,,,Free,,,,,,,,,,false,,,,,,,
ELEC,Lee Nissan,4170 Raleigh Rd Pkwy,,Wilson,NC,27896,,252-237-4400,E,,Public - Call ahead,Dealership business hours,,,,,,1,2,,Non-Networked,,GPS,35.756003,-77.9753,2022-03-07,47046,2023-02-14 15:54:11 UTC,P,,,2012-01-31,,,,,CHADEMO J1772 J1772COMBO,US,,,,Public - Appeler à l'avance,,public,CALL,,CAR_DEALER,,,,,,,Free,,,,,,,,,,false,,,,,,,
ELEC,Modern Nissan,5795 University Pkwy,,Winston-Salem,NC,27105,,336-767-8260,E,,Public - Call ahead,Dealership business hours,,,,,,1,1,,Non-Networked,,200-9,36.179741,-80.275364,2022-03-07,47048,2023-02-14 15:54:11 UTC,P,,,2012-01-31,,,,,CHADEMO J1772,US,,,,Public - Appeler à l'avance,,public,CALL,,CAR_DEALER,,,,,,,Free,,,,,,,,,,false,,,,,,,
ELEC,Orr Nissan - Central,200 E I-240 Service Rd,,Oklahoma City,OK,73149,,,E,,Public - Call ahead,Dealership business hours; contact 405-631-7771 for more information,,,,,,1,1,,Non-Networked,,GPS,35.39119,-97.509251,2022-03-07,47057,2023-02-14 15:54:11 UTC,P,,,2012-01-31,,,,,CHADEMO J1772,US,,,,Public - Appeler à l'avance,,public,CALL,,CAR_DEALER,,,,,,,Free,,,,,,,,,,false,,,,,,,
ELEC,Grand Strand Nissan,4701 Highway 501,,Myrtle Beach,SC,29579,,843-236-2191,E,,Public - Call ahead,Dealership business hours,,,,,,1,1,,Non-Networked,,GPS,33.753917,-78.965658,2022-03-07,47086,2023-02-14 15:54:11 UTC,P,,,2012-01-31,,,,,CHADEMO J1772,US,,,,Public - Appeler à l'avance,,public,CALL,,CAR_DEALER,,,,,,,Free,,,,,,,,,,false,,,,,,,
ELEC,Modern Nissan - Lake Norman,18615 Statesville Rd,,Cornelius,NC,28031,,704-237-5100,E,,Public - Call ahead,Dealership business hours,,,,,,1,1,,Non-Networked,,200-8,35.467117,-80.872205,2022-03-07,47123,2023-02-14 15:54:11 UTC,P,,,2012-01-31,,,,,CHADEMO J1772,US,,,,Public - Appeler à l'avance,,public,CALL,,CAR_DEALER,,,,,,,Free,,,,,,,,,,false,,,,,,,
ELEC,Martin Nissan,5240 Golf Rd,,Skokie,IL,60077,,847-965-3460,E,,Public - Call ahead,Dealership business hours,,,,,,1,1,,Non-Networked,,200-9,42.055712,-87.757895,2022-03-07,47133,2023-02-14 15:54:11 UTC,P,,,2012-01-31,,,,,CHADEMO J1772 J1772COMBO,US,,,,Public - Appeler à l'avance,,public,CALL,,CAR_DEALER,,,,,,,,,,,,,,,,,false,,,,,,,
ELEC,Bob Rohrman Nissan,220 Verplank Rd,,Burns Harbor,IN,46304,,219-787-1777,E,,Public - Call ahead,Dealership business hours,,,,,,1,1,,Non-Networked,,200-9,41.604651,-87.110979,2020-06-09,47141,2023-02-15 22:45:41 UTC,P,,,2012-01-31,,,,,CHADEMO J1772,US,,,,Public - Appeler à l'avance,,public,CALL,,CAR_DEALER,,,,,,,,,,,,,,,,,false,,,,,,,
ELEC,Ed Martin Nissan - Fishers,13397 Britton Park Rd,,Fishers,IN,46038,,317-863-2424,E,,Public - Call ahead,Dealership business hours,,,,,,1,1,,Non-Networked,,GPS,39.983623,-86.004756,2022-03-07,47148,2023-02-14 15:54:11 UTC,P,,,2012-01-31,,,,,CHADEMO J1772,US,,,,Public - Appeler à l'avance,,public,CALL,,CAR_DEALER,,,,,,,,,,,,,,,,,false,,,,,,,
ELEC,Ed Martin Nissan,802 N Shadeland Ave,,Indianapolis,IN,46219,,317-359-9231,E,,Public - Call ahead,Dealership business hours,,,,,,1,1,,Non-Networked,,GPS,39.779011,-86.046058,2022-03-07,47152,2023-02-14 15:54:11 UTC,P,,,2012-01-31,,,,,CHADEMO J1772,US,,,,Public - Appeler à l'avance,,public,CALL,,CAR_DEALER,,,,,,,,,,,,,,,,,false,,,,,,,
ELEC,Hubler Nissan,8435 US Highway 31,,Indianapolis,IN,46227,,317-888-9227,E,,Public - Call ahead,Dealership business hours,,,,,,1,1,,Non-Networked,,GPS,39.644452,-86.131954,2022-03-07,47154,2023-02-14 15:54:11 UTC,P,,,2012-01-31,,,,,CHADEMO J1772,US,,,,Public - Appeler à l'avance,,public,CALL,,CAR_DEALER,,,,,,,,,,,,,,,,,false,,,,,,,
ELEC,Kerry Nissan,8053 Burlington Pike,,Florence,KY,41042,,859-371-8191,E,,Public - Call ahead,Dealership business hours,,,,,,1,1,,Non-Networked,,200-9,39.003452,-84.654074,2020-06-09,47178,2023-02-15 22:45:41 UTC,P,,,2012-01-31,,,,,CHADEMO J1772,US,,,,Public - Appeler à l'avance,,public,CALL,,CAR_DEALER,,,,,,,,,,,,,,,,,false,,,,,,,
ELEC,Leith Nissan,2100 Auto Park Blvd,,Cary,NC,27511,,919-589-0029,E,,Public - Call ahead,Dealership business hours,,,,,,1,1,,Non-Networked,,GPS,35.7390019,-78.8138134,2022-03-07,47192,2023-02-14 15:54:11 UTC,P,,,2012-01-31,,,,,CHADEMO J1772 J1772COMBO,US,,,,Public - Appeler à l'avance,,public,CALL,,CAR_DEALER,,,,,,,Free,,,,,,,,,,false,,,,,,,
ELEC,Al Piemonte Nissan,1600 W North Ave,,Melrose Park,IL,60160,,708-343-3800,E,,Public - Call ahead,Dealership business hours,,,,,,1,1,,Non-Networked,,200-9,41.907344,-87.854085,2022-03-07,47209,2023-02-14 15:54:11 UTC,P,,,2012-01-31,,,,,CHADEMO J1772 J1772COMBO,US,,,,Public - Appeler à l'avance,,public,CALL,,CAR_DEALER,,,,,,,Free,,,,,,,,,,false,,,,,,,
ELEC,Gerald Nissan,1575 W Ogden Ave,,Naperville,IL,60540,,630-355-3337,E,,Public - Call ahead,Dealership business hours,,,,,,1,1,,Non-Networked,,200-9,41.766972,-88.187306,2022-03-07,47213,2023-02-14 15:54:11 UTC,P,,,2012-01-31,,,,,CHADEMO J1772,US,,,,Public - Appeler à l'avance,,public,CALL,,CAR_DEALER,,,,,,,Free,,,,,,,,,,false,,,,,,,
ELEC,Star Nissan,5757 W Touhy Ave,,Niles,IL,60714,,847-647-1555,E,,Public - Call ahead,Dealership business hours,,,,,,1,1,,Non-Networked,,200-9,42.01155,-87.771151,2022-03-07,47215,2023-02-14 15:54:11 UTC,P,,,2012-01-31,,,,,CHADEMO J1772 J1772COMBO,US,,,,Public - Appeler à l'avance,,public,CALL,,CAR_DEALER,,,,,,,Free,,,,,,,,,,false,,,,,,,
